City_ID,City,Lat,Lng,Max Temp,Humidity,Cloudiness,Wind Speed,Country,Date
0,gizo,-8.103,156.8419,26.5,83,100,8.31,SB,1693217548
1,vorgashor,67.5833,63.95,10.56,72,96,3.98,RU,1693217550
2,zhezqazghan,47.7833,67.7667,20.32,30,75,9.0,KZ,1693217552
3,nanzhang chengguanzhen,31.7839,111.8275,24.86,74,59,1.74,CN,1693217553
4,tazovsky,67.4667,78.7,12.2,71,62,2.58,RU,1693217554
5,margaret river,-33.95,115.0667,14.02,75,98,5.34,AU,1693217124
6,itoman,26.1247,127.6694,30.43,81,40,4.12,JP,1693217557
7,whangarei,-35.7317,174.3239,6.45,94,9,1.14,NZ,1693217498
8,richards bay,-28.783,32.0377,21.15,55,5,3.32,ZA,1693217559
9,bredasdorp,-34.5322,20.0403,20.63,47,0,2.78,ZA,1693217561
10,agua dulce,18.1333,-94.1333,24.48,94,95,2.66,MX,1693217563
11,iqaluit,63.7506,-68.5145,2.85,87,75,1.54,CA,1693217564
12,puerto ayora,-0.7393,-90.3518,24.19,92,100,3.13,EC,1693217565
13,thompson,55.7435,-97.8558,10.09,93,100,1.03,CA,1693217566
14,papatowai,-46.5619,169.4708,8.07,88,100,7.12,NZ,1693217568
15,waitangi,-43.9535,-176.5597,7.12,68,76,12.81,NZ,1693217570
16,hithadhoo,-0.6,73.0833,28.31,74,73,5.15,MV,1693217571
17,bratsk,56.1325,101.6142,26.27,61,76,1.65,RU,1693217572
18,donskoy,53.9711,38.3363,20.5,47,6,3.39,RU,1693217574
19,kayyerkan,69.3786,87.7439,14.61,71,98,4.47,RU,1693217575
20,dunedin,-45.8742,170.5036,9.89,50,88,4.02,NZ,1693217420
21,petropavlovsk-kamchatsky,53.0452,158.6483,12.1,76,20,4.0,RU,1693217551
22,okhotsk,59.3833,143.3,17.64,74,47,2.67,RU,1693217579
23,hailun,47.45,126.9333,18.09,85,51,3.52,CN,1693217580
24,ilulissat,69.2167,-51.1,9.01,61,75,4.63,GL,1693217582
25,grants,35.1473,-107.8514,12.13,87,0,1.54,US,1693217583
26,grytviken,-54.2811,-36.5092,-4.85,66,13,3.62,GS,1693217584
27,port elizabeth,-33.918,25.5701,25.05,59,0,4.63,ZA,1693217586
28,blackmans bay,-43.0167,147.3167,9.18,90,47,3.38,AU,1693217587
29,ushuaia,-54.8,-68.3,1.83,99,100,1.44,AR,1693217571
30,anadyr,64.75,177.4833,9.28,87,20,6.0,RU,1693217590
31,edinburgh of the seven seas,-37.0676,-12.3116,11.53,72,22,5.67,SH,1693217591
32,wailua homesteads,22.0669,-159.378,26.44,80,20,5.66,US,1693217592
33,port-aux-francais,-49.35,70.2167,6.06,96,100,14.44,TF,1693217593
34,aasiaat,68.7098,-52.8699,4.13,83,100,5.66,GL,1693217594
35,ves'yegonsk,58.664,37.2604,17.97,47,38,2.71,RU,1693217596
36,talnakh,69.4865,88.3972,14.56,83,82,2.38,RU,1693217597
37,fuding,27.3273,120.214,27.15,93,93,1.21,CN,1693217598
38,stanley,54.868,-1.6985,16.55,77,40,2.57,GB,1693217563
39,adamstown,-25.066,-130.1015,20.69,82,100,11.29,PN,1693217600
40,sao vicente,-23.9631,-46.3919,17.1,26,100,3.03,BR,1693217602
41,flying fish cove,-10.4217,105.6791,24.82,78,40,3.09,CX,1693217603
42,guangyuan,32.442,105.823,28.91,58,3,0.64,CN,1693217604
43,fomboni,-12.28,43.7425,25.71,83,6,8.99,KM,1693217605
44,tiksi,71.6872,128.8694,8.33,95,82,2.37,RU,1693217607
45,luderitz,-26.6481,15.1594,29.35,17,0,7.04,NA,1693217410
46,kodiak,57.79,-152.4072,11.73,87,100,2.57,US,1693217609
47,jamestown,42.097,-79.2353,13.8,96,100,2.57,US,1693217610
48,hawaiian paradise park,19.5933,-154.9731,21.73,95,20,4.12,US,1693217409
49,slavutych,51.5196,30.7343,31.78,46,76,1.34,UA,1693217613
50,vadso,70.0744,29.7487,14.49,76,20,3.09,NO,1693217614
51,yellowknife,62.456,-114.3525,11.9,98,60,1.34,CA,1693217615
52,albany,42.6001,-73.9662,14.85,93,1,0.91,US,1693217616
53,shimoda,34.6667,138.95,26.72,89,99,3.96,JP,1693217618
54,georgetown,5.4112,100.3354,32.75,58,20,2.57,MY,1693217508
55,nar'yan-mar,67.6713,53.087,9.16,74,100,3.53,RU,1693217620
56,malabar,-33.9667,151.25,17.06,75,75,5.14,AU,1693217621
57,alesund,62.4723,6.1549,15.42,95,75,7.2,NO,1693217542
58,mvurwi,-17.0333,30.85,20.7,38,49,4.04,ZW,1693217625
59,haiku-pauwela,20.9219,-156.3051,23.91,76,0,6.17,US,1693217626
60,utrik,11.2278,169.8474,28.27,79,43,6.31,MH,1693217627
61,colonia,50.9333,6.95,19.41,75,20,1.54,DE,1693217405
62,fujin,47.26,132.0322,17.2,77,52,1.08,CN,1693217630
63,sechura,-5.5569,-80.8222,19.58,86,0,3.57,PE,1693217633
64,bethel,41.3712,-73.414,21.05,84,75,1.54,US,1693217634
65,batticaloa,7.7102,81.6924,30.35,69,80,7.16,LK,1693217529
66,keetmanshoop,-26.5833,18.1333,25.71,24,10,9.51,NA,1693217636
67,ta`u,-14.2336,-169.5144,25.56,80,80,11.65,AS,1693217637
68,lushun,38.8,121.2667,20.12,92,100,9.53,CN,1693217606
69,college,64.8569,-147.8028,10.99,92,100,2.57,US,1693217640
70,bukittinggi,-0.3091,100.3706,21.15,94,98,1.51,ID,1693217641
71,qaqortoq,60.7167,-46.0333,7.83,56,3,2.22,GL,1693217642
72,tidjikja,18.5564,-11.4271,30.83,53,98,5.92,MR,1693217644
73,lompoc,34.6391,-120.4579,24.88,100,0,0.0,US,1693217645
74,karratha,-20.7377,116.8463,25.12,38,5,3.72,AU,1693217646
75,st. john's,47.5649,-52.7093,15.08,95,75,3.6,CA,1693217648
76,berezovo,63.9381,65.0419,16.79,48,85,3.11,RU,1693217649
77,port mathurin,-19.6833,63.4167,22.68,75,62,10.15,MU,1693217650
78,kununurra,-15.7667,128.7333,24.99,47,43,1.54,AU,1693217651
79,curup,-3.4667,102.5333,23.24,93,95,1.31,ID,1693217652
80,pisco,-13.7,-76.2167,19.03,77,100,3.09,PE,1693217654
81,puerto natales,-51.7236,-72.4875,-0.05,95,87,1.89,CL,1693217506
82,ambovombe,-25.1667,46.0833,20.49,52,84,7.08,MG,1693217656
83,huilong,31.8111,121.655,26.63,96,100,4.8,CN,1693217625
84,afaahiti,-17.75,-149.2833,24.93,80,15,2.14,PF,1693217660
85,olonkinbyen,70.9221,-8.7187,5.45,91,97,3.67,SJ,1693217662
86,korla,41.7597,86.1469,34.09,10,100,10.57,CN,1693217564
87,nagqu,31.5,92.0,15.37,43,67,0.46,CN,1693217664
88,bilibino,68.0546,166.4372,8.21,86,99,0.51,RU,1693217665
89,shilovo,54.3204,40.874,19.17,42,36,5.18,RU,1693217667
90,port-gentil,-0.7193,8.7815,26.98,78,100,4.63,GA,1693217668
91,crane,31.3974,-102.3501,23.87,68,55,5.23,US,1693217669
92,tual,-5.6667,132.75,25.22,86,69,10.91,ID,1693217671
93,broken hill,-31.95,141.4333,17.06,35,33,3.38,AU,1693217672
94,thurso,58.5927,-3.5259,14.36,78,85,6.97,GB,1693217673
95,laguna,38.421,-121.4238,20.25,73,0,2.06,US,1693217621
96,ouani,-12.1322,44.4258,26.32,77,23,5.65,KM,1693217677
97,junin de los andes,-39.9504,-71.0694,3.75,93,100,3.8,AR,1693217678
98,sao jose da coroa grande,-8.8978,-35.1478,25.74,78,70,2.07,BR,1693217679
99,lebu,-37.6167,-73.65,10.3,94,100,7.95,CL,1693217681
100,samarinda,-0.5,117.15,27.04,74,62,2.13,ID,1693217682
101,mulayjah,27.271,48.4242,45.18,6,0,5.4,SA,1693217684
102,usinsk,65.9939,57.5281,11.03,76,96,2.94,RU,1693217685
103,bindki,26.0333,80.6,32.49,53,54,4.27,IN,1693217687
104,port lincoln,-34.7333,135.8667,14.86,75,88,2.52,AU,1693217688
105,margate,51.3813,1.3862,18.72,72,45,3.13,GB,1693217689
106,lame,10.4415,9.2396,29.96,47,30,1.96,NG,1693217690
107,puerto baquerizo moreno,-0.9,-89.6,24.03,76,100,5.65,EC,1693217691
108,igarka,67.4667,86.5833,15.18,74,63,3.68,RU,1693217693
109,kinel',53.2333,50.65,12.58,42,100,7.28,RU,1693217547
110,seremban,2.7297,101.9381,31.47,83,46,1.33,MY,1693217139
111,paranavai,-23.0731,-52.4653,10.93,83,0,3.81,BR,1693217697
112,kone,-21.0595,164.8658,18.59,80,54,1.93,NC,1693217698
113,taoudenni,22.6783,-3.9836,39.4,27,30,6.63,ML,1693217699
114,colby,39.3958,-101.0524,17.95,76,0,3.13,US,1693217700
115,longyearbyen,78.2186,15.6401,7.91,87,75,1.54,SJ,1693217702
116,port moresby,-9.4431,147.1797,24.59,79,69,6.43,PG,1693217703
117,inhambane,-23.865,35.3833,21.76,54,97,6.73,MZ,1693217705
118,holualoa,19.6228,-155.9522,22.91,83,0,2.06,US,1693217706
119,avarua,-21.2078,-159.775,20.03,83,75,2.06,CK,1693217707
120,susuman,62.7833,148.1667,7.85,84,74,1.63,RU,1693217709
121,sabang,5.8933,95.3214,28.55,74,37,9.81,ID,1693217710
122,dryden,49.7833,-92.7503,16.16,94,100,4.63,CA,1693217711
123,uturoa,-16.7333,-151.4333,25.72,71,3,1.28,PF,1693217713
124,zaranj,30.9667,61.8833,35.98,12,0,9.84,AF,1693217714
125,pacific grove,36.6177,-121.9166,16.06,95,100,2.06,US,1693217715
126,mount pearl,47.5166,-52.7813,14.62,95,75,3.6,CA,1693217717
127,kourou,5.1552,-52.6478,24.03,90,33,2.5,GF,1693217718
128,tolanaro,-25.0319,46.9987,20.65,58,95,4.5,MG,1693217719
129,girvan,55.2426,-4.8555,15.0,73,55,4.06,GB,1693217721
130,east london,-33.0153,27.9116,22.52,56,0,7.2,ZA,1693217527
131,thinadhoo,0.5333,72.9333,28.3,74,84,4.31,MV,1693217723
132,kristiansund,63.1115,7.732,15.03,88,75,5.14,NO,1693217724
133,newman,37.3138,-121.0208,19.13,79,0,1.95,US,1693217726
134,isafjordur,66.0755,-23.124,11.02,76,75,0.0,IS,1693217727
135,chibougamau,49.9168,-74.3659,6.79,100,0,2.06,CA,1693217728
136,arak,34.0917,49.6892,31.42,17,0,5.14,IR,1693217730
137,nova sintra,14.8667,-24.7167,24.3,77,99,4.29,CV,1693217731
138,lagunas,-5.2269,-75.6753,21.37,97,13,0.35,PE,1693217732
139,yuzhno-kurilsk,44.0306,145.8556,17.51,98,100,3.9,RU,1693217734
140,hojai,26.0,92.8667,30.11,76,100,0.63,IN,1693217735
141,pemangkat,1.1667,108.9667,28.55,75,85,8.0,ID,1693217736
142,kenai,60.5544,-151.2583,12.83,81,0,2.57,US,1693217737
143,mlalo,-4.9333,38.9333,29.48,49,36,6.25,TZ,1693217738
144,puerto madero,14.7208,-92.4215,25.89,88,100,2.6,MX,1693217740
145,hermanus,-34.4187,19.2345,21.56,53,0,3.09,ZA,1693217685
146,dudinka,69.4058,86.1778,14.79,82,100,4.55,RU,1693217693
147,whitehorse,60.7161,-135.0538,14.89,57,10,0.45,CA,1693217482
148,torghay,49.6339,63.4981,21.31,32,100,9.71,KZ,1693217744
149,kerman,30.2832,57.0788,33.92,17,20,4.12,IR,1693217746
150,bullhead city,35.1478,-114.5683,35.6,17,0,2.68,US,1693217749
151,colac,-38.3333,143.5833,11.76,89,100,1.31,AU,1693217751
152,sinop,41.7711,34.8709,24.24,31,0,4.99,TR,1693217753
153,bridgewater,44.3835,-64.5155,14.82,96,0,1.54,CA,1693217754
154,mitu,1.1983,-70.1733,21.54,97,88,0.66,CO,1693217755
155,pokachi,61.7198,75.3683,16.59,73,100,5.34,RU,1693217756
156,novyy urengoy,66.0833,76.6333,17.16,45,42,2.23,RU,1693217505
157,badger,64.8,-147.5333,10.95,92,100,2.57,US,1693217758
158,nabire,-3.3667,135.4833,26.16,87,94,0.84,ID,1693217275
159,as sulayyil,20.4607,45.5779,44.14,6,98,2.53,SA,1693217718
160,choibalsan,48.0667,114.5,18.69,54,89,2.79,MN,1693217690
161,chonchi,-42.6128,-73.8092,5.56,96,86,1.32,CL,1693217763
162,kapuskasing,49.4169,-82.4331,8.0,93,40,3.09,CA,1693217764
163,nemuro,43.3236,145.575,17.19,98,100,9.35,JP,1693217764
164,leh,34.1667,77.5833,18.41,25,98,3.71,IN,1693217697
165,sao paulo de olivenca,-3.3783,-68.8725,21.78,95,3,0.39,BR,1693217769
166,tarfaya,27.9358,-12.9218,21.88,79,0,10.04,MA,1693217770
167,west island,-12.1568,96.8225,25.99,73,75,4.63,CC,1693217772
168,xilin hot,43.9667,116.0333,20.6,38,89,7.75,CN,1693217773
169,port alfred,-33.5906,26.891,20.1,69,3,1.79,ZA,1693217774
170,yarkovo,57.4028,67.0786,18.27,45,100,3.45,RU,1693217775
171,invercargill,-46.4,168.35,8.9,96,100,4.02,NZ,1693217700
172,ginir,7.1333,40.7,24.17,40,26,4.4,ET,1693217777
173,san patricio,28.017,-97.5169,28.91,63,3,2.58,US,1693217779
174,krnov,50.0897,17.7039,19.2,68,98,5.67,CZ,1693217694
175,khvalynsk,52.4906,48.1058,17.79,35,98,7.41,RU,1693217781
176,sun lakes,33.2112,-111.8754,36.14,38,66,2.29,US,1693217782
177,motueka,-41.1333,173.0167,10.05,85,84,1.15,NZ,1693217783
178,graaff-reinet,-32.2522,24.5308,22.73,34,0,2.01,ZA,1693217784
179,saint-joseph,-21.3667,55.6167,24.71,74,40,0.19,RE,1693217786
180,hamilton,39.1834,-84.5333,17.19,91,0,3.09,US,1693217787
181,khost,33.3395,69.9204,32.52,31,4,7.23,AF,1693217538
182,turuntayevo,52.2,107.6167,25.05,42,73,0.74,RU,1693217789
183,orsa,54.5153,30.4053,26.23,62,100,4.08,BY,1693217689
184,mount gambier,-37.8333,140.7667,10.77,91,93,2.26,AU,1693217792
185,vilyuysk,63.7553,121.6247,23.55,50,68,0.89,RU,1693217793
186,puerto vilelas,-27.5141,-58.9391,8.0,72,0,4.63,AR,1693217794
187,guarapari,-20.6667,-40.4975,18.27,94,100,3.74,BR,1693217619
188,bosaso,11.2842,49.1816,35.73,42,12,7.2,SO,1693217796
189,montepuez,-13.1256,38.9997,30.1,31,1,5.67,MZ,1693217798
190,ketchikan,55.3422,-131.6461,14.26,94,0,0.0,US,1693217799
191,betio village,1.358,172.9211,28.02,68,53,1.85,KI,1693217800
192,kokopo,-4.352,152.2633,25.5,84,87,6.81,PG,1693217801
193,solnechnyy,50.7214,136.6319,13.94,84,17,2.05,RU,1693217802
194,terrace,54.5163,-128.6035,14.95,72,20,0.0,CA,1693217803
195,harstad,68.799,16.5293,18.66,72,99,7.6,NO,1693217805
196,keflavik,64.0049,-22.5624,12.24,94,75,3.09,IS,1693217806
197,zaozersk,69.4005,32.4476,14.05,64,7,2.38,RU,1693217807
198,kirkwall,58.9848,-2.9587,14.42,82,75,5.14,GB,1693217808
199,udachny,66.4167,112.4,19.14,67,86,2.28,RU,1693217809
200,atafu village,-8.5421,-172.5159,28.4,70,81,6.55,TK,1693217810
201,jiayuguan,39.8167,98.3,28.6,13,20,13.05,CN,1693217812
202,mournies,35.4764,24.0092,32.22,45,0,2.57,GR,1693217813
203,hirson,49.9226,4.0826,18.25,70,77,3.16,FR,1693217814
204,sarkand,45.41,79.9186,17.82,66,100,2.23,KZ,1693217815
205,silistra,44.1167,27.2667,32.17,21,0,2.83,BG,1693217816
206,nizhnesortymskiy,62.4397,71.7603,16.64,54,98,5.76,RU,1693217817
207,coahuayana de hidalgo,18.7,-103.6583,25.25,89,21,1.78,MX,1693217819
208,tocopilla,-22.092,-70.1979,17.01,68,37,0.38,CL,1693217820
209,tura,25.5198,90.2201,28.67,80,100,1.67,IN,1693217821
210,conception bay south,47.4999,-52.9981,14.95,95,100,3.49,CA,1693217823
211,enewetak,11.3474,162.3373,27.05,81,100,9.37,MH,1693217826
212,sandnessjoen,66.0217,12.6316,20.06,49,40,5.14,NO,1693217827
213,kertih,4.5141,103.4483,24.01,100,40,1.54,MY,1693217829
214,narrabri,-30.3167,149.7833,14.18,78,100,1.79,AU,1693217541
215,balykshi,47.0667,51.8667,26.0,36,40,8.0,KZ,1693217833
216,santiago de cao,-7.9589,-79.2392,19.07,94,30,3.09,PE,1693217834
217,jiamusi,46.8333,130.35,17.84,81,97,2.01,CN,1693217749
218,remire-montjoly,4.9167,-52.2667,24.02,100,40,0.0,GF,1693217562
219,usogorsk,63.4106,48.6872,10.62,72,98,2.78,RU,1693217837
220,palu,-0.8917,119.8707,25.84,94,52,0.81,ID,1693217623
221,saldanha,-33.0117,17.9442,22.47,43,0,3.34,ZA,1693217841
222,vikulovo,56.8167,70.6107,12.0,98,100,3.24,RU,1693217842
223,la'ie,21.6477,-157.9253,26.98,76,4,2.68,US,1693217843
224,kerema,-7.9631,145.7785,24.89,87,100,5.28,PG,1693217844
225,warrnambool,-38.3833,142.4833,12.41,85,99,1.27,AU,1693217846
226,nova vicosa,-17.8919,-39.3719,22.81,95,99,4.62,BR,1693217839
227,kocaali,41.0534,30.8528,27.91,57,55,3.18,TR,1693217848
228,altai,46.3722,96.2583,22.59,19,0,5.19,MN,1693217807
229,ribeira grande,38.5167,-28.7,25.22,73,40,6.71,PT,1693217852
230,meadow lakes,61.6247,-149.6011,13.99,94,100,0.0,US,1693217853
231,adra,36.7496,-3.0206,25.84,52,6,3.38,ES,1693217855
232,namibe,-15.1961,12.1522,20.02,71,55,3.45,AO,1693217856
233,kerikeri,-35.2268,173.9474,5.51,89,7,1.78,NZ,1693217857
234,lampazos de naranjo,27.0167,-100.5167,27.79,44,9,1.86,MX,1693217858
235,sitka,57.0531,-135.33,15.94,88,75,0.0,US,1693217859
236,congonhas,-20.4997,-43.8578,14.73,95,99,1.74,BR,1693217860
237,puerto deseado,-47.7503,-65.8938,10.17,53,100,11.01,AR,1693217862
238,pingnan,23.5543,110.3976,26.07,94,100,2.51,CN,1693217863
239,kapa'a,22.0752,-159.319,27.18,80,20,5.66,US,1693217864
240,selfoss,63.9331,-20.9971,12.25,88,100,3.07,IS,1693217866
241,revda,56.801,59.9303,10.61,88,100,3.32,RU,1693217867
242,imatra,61.1719,28.7524,19.93,51,100,4.02,FI,1693217868
243,al burayqah,30.4062,19.5739,31.49,46,4,1.37,LY,1693217869
244,rantepao,-2.9701,119.8978,20.78,94,66,0.91,ID,1693217870
245,leeton,-34.5667,146.4,14.38,70,13,1.88,AU,1693217872
246,carnarvon,-24.8667,113.6333,21.57,56,0,5.17,AU,1693217873
247,gamba,-2.65,10.0,25.92,71,66,2.65,GA,1693217875
248,kirkwood,38.5834,-90.4068,19.88,90,40,3.09,US,1693217865
249,kailua-kona,19.6406,-155.9956,24.98,83,0,2.06,US,1693217877
250,pskov,57.8136,28.3496,21.95,78,20,6.0,RU,1693217878
251,portland,45.5234,-122.6762,19.15,83,100,2.57,US,1693217657
252,namsos,64.4662,11.4957,16.95,67,75,3.6,NO,1693217882
253,inarajan village,13.2736,144.7484,28.08,93,100,5.3,GU,1693217883
254,sinabang,2.4803,96.3801,27.63,79,63,2.04,ID,1693217885
255,tosontsengel,48.7567,98.2839,24.9,26,0,1.94,MN,1693217886
256,san rafael del sur,11.8485,-86.4384,25.54,89,100,0.24,NI,1693217887
257,soderhamn,61.3037,17.0592,14.42,65,100,1.34,SE,1693217888
258,kruisfontein,-34.0033,24.7314,23.82,26,4,2.25,ZA,1693217889
259,newport,51.5877,-2.9984,19.14,74,95,3.99,GB,1693217891
260,kuanda,56.3161,116.0806,21.79,51,1,1.59,RU,1693217892
261,brak,27.5496,14.2714,40.95,11,43,3.82,LY,1693217893
262,klyuchi,52.2667,79.1667,25.29,37,100,7.7,RU,1693217894
263,labytnangi,66.6572,66.4183,15.26,43,9,4.18,RU,1693217600
264,kirakira,-10.4544,161.9205,24.88,87,73,3.96,SB,1693217896
265,suntar,62.1444,117.6319,23.37,51,93,1.12,RU,1693217898
266,labrador city,52.9463,-66.9114,8.95,87,75,1.54,CA,1693217899
267,hohr-grenzhausen,50.4333,7.6667,16.86,85,100,1.04,DE,1693217900
268,ust-nera,64.5667,143.2,14.22,73,73,1.38,RU,1693217901
269,qamdo,31.1667,97.2333,14.44,51,69,2.62,CN,1693217904
270,mount isa,-20.7333,139.5,16.87,42,0,2.57,AU,1693217892
271,west valley,46.5921,-120.6051,22.03,55,0,4.12,US,1693217906
272,lindsay,36.203,-119.0882,20.82,81,0,2.57,US,1693217907
273,ipilan,8.8431,117.9033,28.3,80,99,5.81,PH,1693217908
274,sonari,27.0667,95.0333,27.03,98,100,1.23,IN,1693217909
275,zhangjiakou shi xuanhua qu,40.6103,115.0447,20.79,66,32,2.67,CN,1693217911
276,prado,-17.3411,-39.2208,22.57,96,98,3.91,BR,1693217814
277,narra,9.3167,118.4,27.99,82,100,3.41,PH,1693217913
278,la passe,45.5549,-0.8967,21.13,53,52,7.93,FR,1693217914
279,priargunsk,50.3691,119.1012,19.56,61,63,2.8,RU,1693217915
280,luce,48.4369,1.4636,17.53,78,91,1.79,FR,1693217916
281,capayan,-28.761,-66.0502,10.34,42,0,3.52,AR,1693217918
282,manicore,-5.8092,-61.3003,23.16,68,6,0.97,BR,1693217919
283,ingeniero jacobacci,-41.3427,-69.5448,4.47,71,100,6.14,AR,1693217920
284,papao,-17.75,-149.55,25.82,77,5,4.32,PF,1693217921
285,el granada,37.5027,-122.4694,17.22,88,0,3.6,US,1693217922
286,challapata,-18.9,-66.7667,2.45,28,7,1.29,BO,1693217923
287,rio grande,-32.035,-52.0986,-0.03,83,3,2.52,BR,1693217925
288,aiquile,-18.2041,-65.1807,8.15,95,42,0.77,BO,1693217926
289,oum hadjer,13.2954,19.6966,33.59,45,53,3.49,TD,1693217858
290,saint-pierre,-21.3393,55.4781,25.32,69,40,2.57,RE,1693217928
291,phan thiet,10.9333,108.1,31.0,64,22,6.61,VN,1693217816
292,san sebastian de la gomera,28.0916,-17.1133,29.1,78,20,2.57,ES,1693217930
293,kimbe,-5.5502,150.1429,25.52,83,39,3.86,PG,1693217931
294,kingston,17.997,-76.7936,29.53,83,20,4.63,JM,1693217933
295,fort mcmurray,56.7268,-111.381,14.73,100,0,0.0,CA,1693217934
296,ararangua,-28.9347,-49.4858,6.05,84,0,1.59,BR,1693217935
297,salinas,36.6777,-121.6555,16.66,95,75,2.57,US,1693217796
298,cockburn town,21.4612,-71.1419,29.16,72,47,4.1,TC,1693217937
299,khandyga,62.6667,135.6,17.38,78,41,1.06,RU,1693217938
300,steamboat springs,40.485,-106.8317,13.17,87,0,0.0,US,1693217939
301,omdurman,15.6445,32.4777,38.32,25,50,4.93,SD,1693217726
302,lerwick,60.1545,-1.1494,12.0,89,100,6.42,GB,1693217942
303,rapid city,44.0805,-103.231,19.01,62,0,5.14,US,1693217794
304,egilsstadir,65.2653,-14.3948,10.95,82,75,2.57,IS,1693217944
305,westport,41.1415,-73.3579,21.22,89,100,3.6,US,1693217770
306,kiunga,-6.1219,141.2906,23.15,90,100,1.01,PG,1693217947
307,ola,59.5833,151.2833,14.1,67,78,4.85,RU,1693217948
308,puerto santa,-8.9906,-78.6456,19.36,87,57,3.71,PE,1693217950
309,myshkin,57.7897,38.4545,17.71,44,25,2.86,RU,1693217951
310,dubbo,-32.25,148.6167,12.07,62,6,2.57,AU,1693217952
311,san jose del cabo,23.0589,-109.6977,28.61,84,6,0.45,MX,1693217955
312,olyokminsk,60.3736,120.4264,23.38,47,83,1.69,RU,1693217956
313,sarwar,26.0667,75.0,33.02,44,1,5.74,IN,1693217765
314,bei'an,24.5399,109.533,22.42,92,100,4.48,CN,1693217958
315,taltal,-25.4,-70.4833,14.92,71,36,0.69,CL,1693217959
316,nadi,-17.8,177.4167,21.0,78,20,5.14,FJ,1693217960
317,cumbal,0.9088,-77.7915,5.46,90,26,2.88,CO,1693217962
318,hobyo,5.3505,48.5268,29.55,61,9,12.68,SO,1693217963
319,severobaykal'sk,55.65,109.3167,16.44,67,100,0.48,RU,1693217760
320,pascagoula,30.3658,-88.5561,27.07,92,75,0.0,US,1693217852
321,bawku,11.0616,-0.2417,29.16,66,100,3.45,GH,1693217968
322,calipatria,33.1256,-115.5142,33.47,25,0,3.88,US,1693217969
323,ancud,-41.8697,-73.8203,7.66,83,76,5.12,CL,1693217735
324,pudozh,61.8099,36.5345,16.77,48,47,1.21,RU,1693217971
325,rawson,-43.3002,-65.1023,12.35,53,95,13.69,AR,1693217972
326,portel,-1.9356,-50.8211,22.95,91,5,1.84,BR,1693217888
327,bubanza,-3.1167,29.4,32.26,28,10,2.97,BI,1693217975
328,cabo san lucas,22.8909,-109.9124,28.62,73,5,2.68,MX,1693217976
329,vila franca do campo,37.7167,-25.4333,24.23,75,81,4.16,PT,1693217977
330,arteche,12.2645,125.4048,27.36,78,100,5.43,PH,1693217978
331,touros,-5.1989,-35.4608,26.55,71,91,4.87,BR,1693217979
332,belvedere marittimo,39.6179,15.8617,27.85,71,39,5.35,IT,1693217981
333,sierra grande,-41.606,-65.3557,9.86,55,100,11.47,AR,1693217982
334,sarmiento,-45.5882,-69.07,7.64,68,100,8.43,AR,1693217983
335,tara,56.8944,74.371,18.24,84,100,1.48,RU,1693217985
336,auki,-8.7676,160.7034,25.11,87,100,2.71,SB,1693217987
337,saint-philippe,-21.3585,55.7679,24.77,74,51,2.51,RE,1693217988
338,cambria,35.5641,-121.0808,24.23,51,0,2.64,US,1693217989
339,chiredzi,-21.05,31.6667,23.09,25,1,5.33,ZW,1693217992
340,spring creek,40.7266,-115.5859,18.5,39,0,1.61,US,1693217993
341,sept-iles,50.2001,-66.3821,13.0,73,20,3.09,CA,1693217994
342,kushiro,42.975,144.3747,22.53,88,75,5.14,JP,1693217995
343,sambava,-14.2667,50.1667,25.89,66,26,6.47,MG,1693217997
344,villa mercedes,-33.6757,-65.4578,9.04,49,8,5.63,AR,1693217998
345,linxia chengguanzhen,35.6003,103.2064,23.4,37,3,4.66,CN,1693217999
346,kyparissia,37.2511,21.6736,31.63,50,0,2.72,GR,1693218001
347,saipan,15.1355,145.701,27.39,83,75,1.54,MP,1693218002
348,hasaki,35.7333,140.8333,29.61,83,100,7.67,JP,1693217794
349,pori,61.4833,21.7833,15.04,94,100,1.54,FI,1693218005
350,la ronge,55.1001,-105.2842,15.12,88,100,2.57,CA,1693218006
351,hirara,24.8,125.2833,28.92,89,40,4.63,JP,1693218008
352,reggane,26.7158,0.1714,41.44,16,11,5.65,DZ,1693217736
353,fort bragg,35.139,-79.006,23.58,98,100,2.06,US,1693218010
354,guelmim,28.987,-10.0574,23.36,55,8,3.64,MA,1693217738
355,puerto leguizamo,-0.1934,-74.7819,22.28,97,97,0.85,CO,1693218012
356,nadvirna,48.6348,24.5694,31.38,37,85,2.42,UA,1693217888
357,konarka,19.9,86.1167,34.22,61,57,4.93,IN,1693217982
358,san agustin de valle fertil,-30.6335,-67.4682,5.63,59,0,1.04,AR,1693218016
359,benguela,-12.5763,13.4055,24.06,71,40,3.91,AO,1693218017
360,dakhla,23.6848,-15.958,23.01,78,0,12.35,EH,1693217719
361,kirishi,59.4471,32.0205,20.95,44,100,4.3,RU,1693218020
362,durango,24.8333,-104.8333,13.94,69,77,0.53,MX,1693218021
363,minas de marcona,-15.2119,-75.1103,12.36,87,16,2.66,PE,1693217803
364,tionk essil,12.7856,-16.5217,28.24,75,100,3.84,SN,1693218023
365,mejit,10.2753,170.8646,28.22,80,99,6.09,MH,1693218024
366,tenenkou,14.4572,-4.9169,30.69,53,73,3.74,ML,1693218026
367,giddalur,15.35,78.9167,35.98,34,25,5.35,IN,1693217968
368,bhimunipatnam,17.8833,83.4333,29.49,73,70,4.35,IN,1693217817
369,gadzhiyevo,69.2551,33.3362,13.18,67,5,1.21,RU,1693218029
370,guantanamo,20.1444,-75.2092,25.76,91,85,0.59,CU,1693218032
371,gorontalo,0.5412,123.0595,26.19,73,31,2.19,ID,1693218033
372,codrington,-38.2667,141.9667,10.78,86,95,2.22,AU,1693218034
373,santa maria,-29.6842,-53.8069,1.61,100,1,1.54,BR,1693218035
374,san luis de la loma,17.2706,-100.8939,26.04,88,97,1.98,MX,1693218037
375,bozkurt,41.9577,34.0109,25.74,52,0,2.77,TR,1693218038
376,punta arenas,-53.15,-70.9167,3.27,89,100,3.7,CL,1693218039
377,colonia menno,-22.3667,-59.8167,10.41,44,5,3.14,PY,1693218040
378,kentville,45.0835,-64.4988,15.22,99,1,0.0,CA,1693218042
379,pontal do parana,-25.6533,-48.5128,11.75,85,97,2.12,BR,1693218043
380,greenville,35.6127,-77.3663,24.09,98,75,0.89,US,1693218044
381,dazuocun,24.8862,118.9643,28.27,83,88,4.52,CN,1693218047
382,antsiranana,-12.2787,49.2917,31.42,42,20,6.17,MG,1693218048
383,hotan,37.0997,79.9269,27.84,23,98,1.25,CN,1693218050
384,hadibu,12.65,54.0333,29.81,61,24,11.02,YE,1693218051
385,piacabucu,-10.4056,-36.4344,25.62,80,87,3.46,BR,1693218052
386,brookings,44.3114,-96.7984,16.77,92,0,2.91,US,1693218054
387,chajari,-30.7505,-57.9796,5.5,69,0,3.58,AR,1693218055
388,pariaman,-0.619,100.12,28.03,87,84,2.82,ID,1693217869
389,antofagasta,-23.65,-70.4,15.6,76,11,0.94,CL,1693218057
390,bandarbeyla,9.4942,50.8122,33.33,46,35,11.13,SO,1693218059
391,az zulfi,26.2995,44.8154,42.99,8,6,2.01,SA,1693218060
392,iskateley,67.6803,53.1512,9.07,74,100,3.51,RU,1693218061
393,isangel,-19.55,169.2667,21.31,83,100,7.15,VU,1693218063
394,kendari,-3.945,122.4989,25.16,82,74,2.08,ID,1693217870
395,mendi,-6.1761,143.6513,13.68,99,99,0.59,PG,1693218065
396,roma,43.2128,-75.4557,14.08,96,100,0.0,US,1693218067
397,hatillo,18.4863,-66.8254,28.0,92,23,2.4,PR,1693218068
398,dzuunmod,48.2199,97.3744,23.88,25,10,3.75,MN,1693218069
399,sieradz,51.5958,18.7302,21.49,78,72,3.55,PL,1693218071
400,santa luzia,-19.7697,-43.8514,17.65,85,75,4.12,BR,1693218072
401,kirensk,57.7853,108.1119,24.36,62,100,0.89,RU,1693218073
402,fuerte olimpo,-21.0415,-57.8738,17.16,49,95,1.5,PY,1693218074
403,kudahuvadhoo,2.6708,72.8944,28.01,75,73,4.49,MV,1693218075
404,cestos city,5.46,-9.5828,26.9,79,82,4.67,LR,1693218076
405,santa elena de uairen,4.6167,-61.1333,19.42,76,0,1.53,VE,1693218078
406,calama,-22.4667,-68.9333,8.27,12,0,10.29,CL,1693218079
407,al fqih ben calah,32.5009,-6.6906,27.4,23,0,1.41,MA,1693218080
408,cidreira,-30.1811,-50.2056,6.79,85,0,3.16,BR,1693218081
409,kavaratti,10.5669,72.642,28.33,70,100,3.38,IN,1693218082
410,vilyuchinsk,52.9306,158.4028,13.15,82,5,3.75,RU,1693218084
411,rajanpur,29.1035,70.325,41.92,22,0,4.74,PK,1693217811
412,callao,-12.0667,-77.15,20.16,73,100,3.6,PE,1693218086
413,sur,22.5667,59.5289,35.28,48,65,1.85,OM,1693218087
414,tsuma,32.1,131.4,27.97,90,42,1.61,JP,1693217789
415,ko pha ngan,9.7578,100.0291,29.38,72,27,5.38,TH,1693218090
416,bardai,11.65,7.2333,27.48,57,98,1.67,NG,1693218091
417,aykhal,66.0,111.5,19.54,59,94,0.89,RU,1693218092
418,kindu,-2.95,25.95,37.5,28,34,1.51,CD,1693217965
419,island harbour,50.724,-1.2758,19.4,71,65,2.68,GB,1693218094
420,steinbach,50.1667,8.5667,19.73,72,0,2.57,DE,1693218097
421,kiama,-34.6833,150.8667,16.11,89,100,3.35,AU,1693218098
422,broome,42.2506,-75.833,14.64,88,75,2.06,US,1693218099
423,sao gabriel da cachoeira,-0.1303,-67.0892,21.77,96,0,0.69,BR,1693217870
424,bamboo flat,11.7,92.7167,30.05,74,75,5.14,IN,1693218101
425,manismata,-2.4667,111.0333,28.0,62,76,3.34,ID,1693218103
426,lethbridge,49.7,-112.8186,15.36,81,0,2.57,CA,1693218104
427,tofol,5.3248,163.0078,29.12,75,93,5.2,FM,1693218105
428,novyy rogachik,48.6768,44.0608,28.5,41,36,5.96,RU,1693218106
429,puerto aysen,-45.4,-72.7,4.19,100,100,2.01,CL,1693218107
430,glace bay,46.1969,-59.957,14.94,96,40,3.09,CA,1693218108
431,castillos,-34.1667,-53.8333,3.77,93,4,1.62,UY,1693218110
432,fauske,67.2588,15.3918,18.3,62,99,3.2,NO,1693218111
433,tot'ma,59.9747,42.7642,13.33,52,83,3.21,RU,1693218112
434,horta,38.5333,-28.6333,24.8,83,40,5.81,PT,1693218113
435,cacador,-26.7753,-51.015,7.49,88,100,2.04,BR,1693218114
436,pyt-yakh,60.7499,72.8582,12.7,91,100,4.06,RU,1693218116
437,lagunillas,10.1301,-71.2595,25.76,87,5,1.82,VE,1693218117
438,petalcingo,17.2833,-92.45,14.02,99,85,1.12,MX,1693218120
439,lianhe,47.1333,129.2667,17.67,87,94,1.5,CN,1693218121
440,nuku'alofa,-21.1333,-175.2,20.93,60,74,7.65,TO,1693217922
441,erenhot,43.6475,111.9767,25.99,23,7,4.65,CN,1693218123
442,nawa,27.0167,75.0,34.41,38,1,5.8,IN,1693217984
443,luanda,-8.8368,13.2343,24.0,78,75,3.09,AO,1693218126
444,polyarnyy,69.1989,33.4478,13.15,68,6,1.14,RU,1693218127
445,ratangarh,28.0833,74.6,37.05,28,0,6.48,IN,1693218128
446,lake in the hills,42.1817,-88.3304,14.61,93,0,1.34,US,1693218129
447,pandan,14.0453,124.1694,28.28,79,100,8.49,PH,1693218130
448,agenebode,7.106,6.6966,24.22,94,99,0.91,NG,1693218132
449,ulan bator,47.9077,106.8832,23.07,25,40,3.0,MN,1693218042
450,malvan,16.0667,73.4667,28.53,76,50,6.18,IN,1693217865
451,patterson,37.4716,-121.1297,18.36,78,0,1.81,US,1693218135
452,al bardiyah,31.7561,25.0865,30.99,49,0,6.49,LY,1693218136
453,boa vista,2.8197,-60.6733,26.99,74,0,6.17,BR,1693218137
454,quzhou,28.9594,118.8686,26.28,92,100,1.0,CN,1693217927
455,novodvinsk,64.4165,40.8122,14.5,51,98,1.57,RU,1693218140
456,weno,7.4515,151.8468,25.97,94,100,2.06,FM,1693218142
457,angel r. cabada,18.5833,-95.4333,24.89,91,100,1.16,MX,1693218143
458,port saint john's,-31.6229,29.5448,22.47,46,0,5.51,ZA,1693218144
459,juneau,58.3019,-134.4197,14.56,95,0,0.0,US,1693218145
460,chui,-33.6971,-53.4616,4.26,93,24,1.54,UY,1693217916
461,hafar al-batin,28.4328,45.9708,45.32,11,0,0.0,SA,1693218148
462,ocean city,39.2776,-74.5746,23.32,87,93,4.02,US,1693218149
463,oran,35.6911,-0.6417,29.96,36,0,4.63,DZ,1693218150
464,val-des-monts,45.6501,-75.666,12.31,94,0,0.96,CA,1693218151
465,akwanga,8.9167,8.3833,25.97,73,92,1.95,NG,1693218152
466,hachinohe,40.5,141.5,23.87,88,49,1.4,JP,1693218151
467,ar rutbah,33.0381,40.2848,33.55,18,0,5.34,IQ,1693218155
468,alice springs,-23.7,133.8833,18.75,16,0,3.6,AU,1693218156
469,tando adam,25.7637,68.661,40.64,26,12,8.81,PK,1693218157
470,manokwari,-0.8667,134.0833,27.18,80,82,2.94,ID,1693218158
471,talcahuano,-36.7167,-73.1167,10.82,93,100,4.12,CL,1693218159
472,el calafate,-50.3408,-72.2768,0.84,84,62,2.66,AR,1693218161
473,port hedland,-20.3167,118.5667,26.03,25,9,3.6,AU,1693218162
474,bayji,34.9311,43.487,41.0,15,0,4.57,IQ,1693218163
475,kill devil hills,36.0307,-75.676,25.55,97,0,0.0,US,1693218164
476,fale old settlement,-9.3852,-171.2468,28.0,78,72,6.6,TK,1693218165
477,caldwell,43.6629,-116.6874,23.93,85,0,2.06,US,1693218167
478,ulladulla,-35.35,150.4667,13.25,88,91,2.57,AU,1693218168
479,neryungri,56.6709,124.6491,16.94,65,67,1.32,RU,1693218169
480,hilo,19.7297,-155.09,22.93,93,20,4.12,US,1693218170
481,tchintabaraden,15.8969,5.7985,30.96,39,100,1.03,NE,1693218171
482,penzance,50.1186,-5.5371,17.09,77,75,6.69,GB,1693218173
483,floro,61.5996,5.0328,12.98,88,75,5.14,NO,1693218174
484,plastun,44.7561,136.2939,16.79,90,95,1.37,RU,1693218175
485,prince rupert,54.3161,-130.3201,14.83,97,0,1.54,CA,1693218178
486,happy valley-goose bay,53.3168,-60.3315,11.17,93,75,2.57,CA,1693218179
487,turkmenabat,39.0733,63.5786,25.99,18,0,4.12,TM,1693218180
488,askoy,60.4092,5.226,16.08,94,75,2.57,NO,1693218182
489,vilcun,-38.65,-72.2333,7.26,95,100,5.86,CL,1693218183
490,mokhsogollokh,61.4681,128.9203,20.8,58,5,1.28,RU,1693218184
491,san juan,-31.5375,-68.5364,10.23,47,0,4.53,AR,1693218186
492,kavieng,-2.5744,150.7967,27.44,82,98,3.34,PG,1693218187
493,new norfolk,-42.7826,147.0587,9.84,96,57,1.18,AU,1693218188
494,pizarro,4.9533,-77.366,25.58,87,18,0.64,CO,1693218189
495,yei,4.095,30.6779,33.23,33,44,2.2,SS,1693218190
496,amos,48.5669,-78.1162,7.13,83,10,2.28,CA,1693218192
497,wschowa,51.807,16.3166,18.28,80,98,2.56,PL,1693218194
498,sao felix do xingu,-6.6447,-51.995,25.14,65,91,0.27,BR,1693218195
499,ha giang,22.8333,104.9833,30.53,71,100,0.49,VN,1693218197
500,lichinga,-13.3128,35.2406,20.05,60,75,8.23,MZ,1693218198
501,penonome,8.5167,-80.3667,21.67,92,71,1.34,PA,1693218199
502,camocim,-2.9022,-40.8411,25.36,83,39,4.44,BR,1693218200
503,diu,20.7141,70.9822,29.01,67,8,7.17,IN,1693218202
504,kuta,-8.7233,115.1723,26.97,78,20,7.2,ID,1693218203
505,cooma,-36.2333,149.1333,6.49,93,49,1.66,AU,1693218204
506,portage la prairie,49.9728,-98.2926,15.5,73,55,4.02,CA,1693218205
507,nuuk,64.1835,-51.7216,8.07,69,100,17.86,GL,1693218208
508,el alto,-4.2714,-81.2147,18.96,80,0,5.6,PE,1693218209
509,zagora,30.3484,-5.8365,33.69,14,1,3.67,MA,1693218210
510,ouargla,31.9493,5.325,31.04,18,0,11.32,DZ,1693218212
511,arbus,39.5272,8.5994,23.08,56,91,10.01,IT,1693218213
512,sona,45.4388,10.8255,25.75,57,40,4.63,IT,1693218214
513,mountain home,43.133,-115.6912,17.71,59,0,3.09,US,1693218215
514,baotou,40.6522,109.8222,27.77,18,13,6.08,CN,1693217830
515,mana,5.6592,-53.7767,25.69,92,95,3.09,GF,1693218217
516,kunming,25.0389,102.7183,18.96,63,20,6.0,CN,1693217998
517,brooks,50.5834,-111.8851,9.99,87,0,1.03,CA,1693218220
518,kousa,25.9141,32.7636,40.05,15,0,3.18,EG,1693218221
519,bubaque,11.2833,-15.8333,27.0,79,73,1.93,GW,1693218222
520,raholt,60.2667,11.1833,17.88,80,20,3.09,NO,1693218223
521,borgarnes,64.5383,-21.9206,13.78,92,100,2.31,IS,1693218225
522,praia da vitoria,38.7333,-27.0667,24.31,88,20,4.84,PT,1693218226
523,lensk,60.7253,114.9278,23.52,47,28,1.35,RU,1693218227
524,nantucket,41.2835,-70.0995,19.08,97,100,2.06,US,1693218228
525,annau,37.8876,58.516,30.3,23,0,4.91,TM,1693218230
526,morden,49.1919,-98.1014,17.24,88,51,2.06,CA,1693218231
527,jalai nur,49.45,117.7,16.6,64,100,1.66,CN,1693217963
528,sisimiut,66.9395,-53.6735,6.74,84,100,7.49,GL,1693218233
529,zheleznogorsk,52.331,35.3711,26.93,52,65,2.63,RU,1693218235
530,brisas de zicatela,15.8369,-97.0419,26.25,85,81,2.24,MX,1693218236
531,taulaga,-11.0553,-171.0883,27.71,77,58,8.03,AS,1693218237
532,egersund,58.4513,5.9997,15.21,71,54,6.81,NO,1693218238
533,lihue,21.9789,-159.3672,26.77,79,20,5.66,US,1693218240
534,villa gesell,-37.2639,-56.973,5.03,74,2,4.94,AR,1693218242
535,san antonio,29.4241,-98.4936,28.43,64,40,2.57,US,1693218245
536,manaure balcon del cesar,10.3928,-73.0325,20.6,74,90,2.52,CO,1693218246
537,chadan,51.2833,91.5833,31.16,25,100,1.81,RU,1693218247
538,buala,-8.145,159.5921,25.86,85,97,2.43,SB,1693218250
539,brandon,27.9378,-82.2859,27.23,94,0,2.57,US,1693218251
540,dwarka,22.2394,68.9678,27.88,73,69,8.95,IN,1693218252
541,marsh harbour,26.5412,-77.0636,28.18,74,59,1.7,BS,1693218253
542,vikhorevka,56.1201,101.1636,25.77,53,80,2.34,RU,1693218254
543,san fernando,15.0286,120.6898,30.85,79,100,4.17,PH,1693218256
544,chebba,35.2372,11.115,28.0,47,26,11.56,TN,1693218257
545,tianshui,34.5439,105.6897,24.11,43,0,3.6,CN,1693218258
546,goianinha,-6.2647,-35.2125,25.21,76,97,3.28,BR,1693218259
547,ambodifotatra,-16.9833,49.85,23.79,75,8,7.3,MG,1693218260
548,prince george,53.9166,-122.753,10.7,93,20,0.0,CA,1693218262
549,constantia,44.1833,28.65,34.38,42,0,3.83,RO,1693218263
550,nogliki,51.8333,143.1667,13.2,85,0,3.36,RU,1693218174
551,nikolayevsk-on-amure,53.1406,140.73,15.55,67,2,0.7,RU,1693218267
552,saham,24.1722,56.8886,35.01,65,21,5.06,OM,1693218268
553,miquelon,47.0975,-56.3814,17.0,95,98,6.19,PM,1693218270
554,smithers,54.7804,-127.1743,11.18,93,0,0.0,CA,1693218272
555,veraval,20.9,70.3667,28.2,72,8,6.43,IN,1693218273
