City_ID,City,Lat,Lng,Max Temp,Humidity,Cloudiness,Wind Speed,Country,Date
0,sault ste. marie,46.5168,-84.3333,18.16,90,75,6.17,CA,1693013473
1,puerto natales,-51.7236,-72.4875,-0.27,92,60,2.16,CL,1693013474
2,shingu,33.7333,135.9833,28.98,71,8,3.96,JP,1693013475
3,richards bay,-28.783,32.0377,19.57,76,0,4.83,ZA,1693013476
4,rehoboth,-23.3167,17.0833,7.07,36,100,3.28,NA,1693013410
5,petropavlovsk-kamchatsky,53.0452,158.6483,15.33,82,100,2.0,RU,1693013381
6,castillos,-34.1667,-53.8333,5.3,75,0,3.24,UY,1693013480
7,aasiaat,68.7098,-52.8699,2.89,93,100,5.5,GL,1693013482
8,nyandoma,61.669,40.1991,7.41,86,100,1.95,RU,1693013483
9,wynyard,-41.0,145.7167,11.27,54,87,2.95,AU,1693013484
10,port-aux-francais,-49.35,70.2167,3.09,77,81,12.64,TF,1693013485
11,chernyshevskiy,63.0128,112.4714,20.86,53,8,1.56,RU,1693013487
12,grytviken,-54.2811,-36.5092,-3.34,94,100,2.77,GS,1693013488
13,nar'yan-mar,67.6713,53.087,6.07,85,100,5.85,RU,1693013489
14,adamstown,-25.066,-130.1015,19.15,61,10,6.77,PN,1693013490
15,bredasdorp,-34.5322,20.0403,8.84,76,83,7.95,ZA,1693013492
16,kuhmo,64.1333,29.5167,9.38,83,60,1.0,FI,1693013495
17,bethel,41.3712,-73.414,23.05,88,100,0.0,US,1693013384
18,afaahiti,-17.75,-149.2833,27.93,84,45,6.71,PF,1693013497
19,cole harbour,44.6724,-63.4751,18.99,92,98,3.09,CA,1693013499
20,xi'an,34.2583,108.9286,19.45,97,100,2.96,CN,1693013257
21,pacific grove,36.6177,-121.9166,21.79,83,100,3.09,US,1693013501
22,carnarvon,-24.8667,113.6333,23.43,39,0,4.51,AU,1693013502
23,kununurra,-15.7667,128.7333,28.99,17,0,9.26,AU,1693013503
24,ilulissat,69.2167,-51.1,6.01,87,75,0.51,GL,1693013504
25,chibougamau,49.9168,-74.3659,16.79,77,100,1.03,CA,1693013506
26,iskateley,67.6803,53.1512,6.02,86,100,5.79,RU,1693013507
27,kone,-21.0595,164.8658,25.25,43,8,4.79,NC,1693013508
28,kapuskasing,49.4169,-82.4331,11.05,93,75,2.06,CA,1693013509
29,nova sintra,14.8667,-24.7167,23.97,75,84,1.45,CV,1693013510
30,invercargill,-46.4,168.35,8.05,89,95,5.35,NZ,1693013511
31,jaumave,23.4167,-99.3833,21.62,92,100,1.41,MX,1693013513
32,sodankyla,67.4167,26.6,10.14,87,100,0.56,FI,1693013514
33,edinburgh of the seven seas,-37.0676,-12.3116,14.8,91,100,14.31,SH,1693013515
34,luderitz,-26.6481,15.1594,12.66,76,0,7.96,NA,1693013517
35,albany,42.6001,-73.9662,22.58,92,94,0.76,US,1693013451
36,georgetown,5.4112,100.3354,28.96,83,20,1.54,MY,1693013519
37,olonkinbyen,70.9221,-8.7187,5.6,98,30,8.18,SJ,1693013520
38,bathsheba,13.2167,-59.5167,27.34,83,20,2.06,BB,1693013521
39,thompson,55.7435,-97.8558,18.09,52,0,2.06,CA,1693013522
40,waitangi,-43.9535,-176.5597,10.46,72,100,3.13,NZ,1693013524
41,gulf shores,30.246,-87.7008,31.15,69,0,2.57,US,1693013525
42,ebon,4.582,168.6964,28.41,76,53,5.99,MH,1693013526
43,souillac,-20.5167,57.5167,22.21,78,40,5.14,MU,1693013527
44,guiratinga,-16.3494,-53.7583,28.87,31,86,0.66,BR,1693013528
45,arno,60.1167,18.6333,16.55,91,100,2.14,SE,1693013529
46,taro,-8.3862,115.28,23.0,59,54,1.82,ID,1693013531
47,ushuaia,-54.8,-68.3,0.81,75,40,2.06,AR,1693013340
48,kodiak,57.79,-152.4072,14.73,88,100,3.09,US,1693013533
49,malvan,16.0667,73.4667,26.86,80,100,1.31,IN,1693013534
50,tembisa,-25.9964,28.2268,13.85,39,47,4.12,ZA,1693013535
51,port saint john's,-31.6229,29.5448,18.62,38,0,7.92,ZA,1693013536
52,stanley,54.868,-1.6985,10.29,94,20,1.54,GB,1693013537
53,enewetak,11.3474,162.3373,27.76,81,100,5.15,MH,1693013539
54,lardero,42.4269,-2.4615,19.4,68,100,4.12,ES,1693013540
55,mamuju,-2.6748,118.8885,29.43,67,12,0.8,ID,1693013541
56,fort bragg,35.139,-79.006,31.01,69,20,4.12,US,1693013542
57,hawaiian paradise park,19.5933,-154.9731,27.8,66,100,3.6,US,1693013544
58,talnakh,69.4865,88.3972,11.23,91,100,4.02,RU,1693013545
59,qaqortoq,60.7167,-46.0333,6.07,97,43,2.09,GL,1693013546
60,alaghsas,17.0187,8.0168,31.14,41,8,3.71,NE,1693013547
61,dunedin,-45.8742,170.5036,15.6,61,72,1.34,NZ,1693013401
62,papatowai,-46.5619,169.4708,13.34,64,100,3.95,NZ,1693013549
63,howard springs,-12.497,131.047,29.95,36,53,6.85,AU,1693013551
64,sabzevar,36.2126,57.6819,24.03,27,0,2.66,IR,1693013552
65,spring creek,40.7266,-115.5859,27.12,37,38,4.12,US,1693013553
66,hermanus,-34.4187,19.2345,8.78,71,91,8.68,ZA,1693013554
67,cabo san lucas,22.8909,-109.9124,32.01,70,0,2.06,MX,1693013555
68,weno,7.4515,151.8468,29.02,77,23,6.76,FM,1693013556
69,blackmans bay,-43.0167,147.3167,10.41,57,36,0.6,AU,1693013559
70,yellowknife,62.456,-114.3525,20.79,75,75,3.09,CA,1693013384
71,chonchi,-42.6128,-73.8092,4.51,94,38,1.1,CL,1693013561
72,puerto baquerizo moreno,-0.9,-89.6,23.31,79,16,4.13,EC,1693013562
73,avarua,-21.2078,-159.775,26.03,78,20,6.17,CK,1693013563
74,iqaluit,63.7506,-68.5145,6.85,87,75,10.29,CA,1693013564
75,ballina,-28.8667,153.5667,19.32,59,31,4.03,AU,1693013565
76,sinan,34.8262,126.1086,28.06,78,100,3.13,KR,1693013567
77,macapa,0.0389,-51.0664,28.99,74,40,4.12,BR,1693013279
78,khilok,51.3674,110.4676,17.04,56,76,1.81,RU,1693013569
79,muroto-misakicho,33.2833,134.15,27.83,77,89,5.43,JP,1693013571
80,camana,-16.6228,-72.7111,17.49,84,82,3.51,PE,1693013572
81,kavaratti,10.5669,72.642,28.01,73,100,3.9,IN,1693013284
82,sunnyside,46.3237,-120.0087,29.6,45,0,0.0,US,1693013576
83,cidreira,-30.1811,-50.2056,11.2,58,0,1.55,BR,1693013577
84,tura,25.5198,90.2201,24.19,97,100,1.59,IN,1693013579
85,vorgashor,67.5833,63.95,3.91,97,100,4.38,RU,1693013582
86,stavanger,58.9701,5.7333,14.18,97,40,2.06,NO,1693013583
87,palmas,-10.2128,-48.3603,25.93,83,40,0.0,BR,1693013584
88,as sulayyil,20.4607,45.5779,32.14,12,45,2.61,SA,1693013585
89,bilibino,68.0546,166.4372,13.29,37,100,1.12,RU,1693013587
90,greenland,43.0362,-70.8328,22.18,93,100,1.34,US,1693013588
91,newman,37.3138,-121.0208,33.19,34,0,2.68,US,1693013589
92,berdigestyakh,62.0989,126.6992,18.16,51,100,1.86,RU,1693013590
93,sanawad,22.1833,76.0667,24.63,86,15,4.05,IN,1693013591
94,tateyama,34.9833,139.8667,28.6,73,6,1.78,JP,1693013529
95,salekhard,66.53,66.6019,7.05,82,84,4.85,RU,1693013594
96,lebu,-37.6167,-73.65,6.6,77,42,2.1,CL,1693013595
97,saint-joseph,-21.3667,55.6167,19.71,77,24,5.12,RE,1693013596
98,rexburg,43.826,-111.7897,26.99,38,20,5.14,US,1693013597
99,haiku-pauwela,20.9219,-156.3051,26.69,67,58,7.42,US,1693013598
100,saldanha,-33.0117,17.9442,11.03,61,43,8.66,ZA,1693013599
101,margaret river,-33.95,115.0667,16.01,64,96,1.12,AU,1693013601
102,anadyr,64.75,177.4833,9.28,70,75,5.0,RU,1693013602
103,masterton,-40.9597,175.6575,13.58,58,12,0.55,NZ,1693013603
104,la'ie,21.6477,-157.9253,30.98,65,0,3.58,US,1693013604
105,cooma,-36.2333,149.1333,15.03,39,68,0.84,AU,1693013444
106,sarmiento,-45.5882,-69.07,4.94,56,0,6.62,AR,1693013361
107,turpan,42.9333,89.1667,34.58,14,0,0.8,CN,1693013608
108,hobyo,5.3505,48.5268,25.05,87,23,9.52,SO,1693013609
109,utrik,11.2278,169.8474,28.44,71,96,5.86,MH,1693013610
110,kingscliff,-28.2667,153.5667,22.65,53,40,5.66,AU,1693013611
111,igarka,67.4667,86.5833,11.08,97,100,1.6,RU,1693013614
112,hami,42.8,93.45,27.16,24,2,2.52,CN,1693013332
113,zavitinsk,50.1167,129.45,17.91,88,100,1.0,RU,1693013617
114,lobujya,27.95,86.8167,3.71,92,100,2.03,NP,1693013618
115,nizhniy lomov,53.5304,43.6766,12.71,51,100,2.36,RU,1693013619
116,lazaro cardenas,17.9583,-102.2,26.13,85,99,1.1,MX,1693013620
117,lauro de freitas,-12.8944,-38.3272,26.01,83,20,3.09,BR,1693013621
118,harper,4.375,-7.7169,24.53,89,97,4.39,LR,1693013622
119,sisimiut,66.9395,-53.6735,8.46,74,100,1.75,GL,1693013624
120,papao,-17.75,-149.55,28.82,83,32,7.74,PF,1693013625
121,ribeira grande,38.5167,-28.7,22.1,89,4,5.81,PT,1693013626
122,wailua homesteads,22.0669,-159.378,30.44,71,0,6.69,US,1693013627
123,vega de alatorre,20.0333,-96.6333,26.31,82,24,2.82,MX,1693013629
124,kawambwa,-9.7915,29.0791,17.98,39,6,1.89,ZM,1693013630
125,west fargo,46.875,-96.9004,20.0,66,0,6.69,US,1693013631
126,tiksi,71.6872,128.8694,12.96,71,100,5.3,RU,1693013632
127,vimmerby,57.6659,15.8552,13.48,99,100,1.89,SE,1693013633
128,al fuwayliq,26.4432,43.2534,29.21,14,4,2.25,SA,1693013635
129,chekmagush,55.1319,54.6556,9.14,76,81,1.96,RU,1693013636
130,west island,-12.1568,96.8225,25.99,78,40,6.17,CC,1693013637
131,east london,-33.0153,27.9116,12.95,63,97,10.27,ZA,1693013639
132,whitehorse,60.7161,-135.0538,22.23,50,100,4.12,CA,1693013640
133,alta,69.9689,23.2717,6.59,93,0,1.54,NO,1693013641
134,vrangel',42.7297,133.0839,22.52,80,10,5.59,RU,1693013643
135,constantia,44.1833,28.65,20.39,79,0,3.16,RO,1693013644
136,chala,-7.5833,31.2667,15.97,55,13,2.11,TZ,1693013645
137,darwin,-12.4611,130.8418,29.99,31,0,7.72,AU,1693013549
138,gebeit,21.0667,36.3167,29.81,28,9,2.5,SD,1693013648
139,timaru,-44.4,171.25,11.71,92,0,3.13,NZ,1693013649
140,taoudenni,22.6783,-3.9836,34.24,13,0,6.61,ML,1693013651
141,matehuala,23.65,-100.65,21.4,64,67,2.58,MX,1693013652
142,sinabang,2.4803,96.3801,24.54,91,100,3.42,ID,1693013653
143,viedma,-40.8135,-62.9967,5.14,56,0,2.6,AR,1693013654
144,menongue,-14.6585,17.691,15.62,25,67,1.4,AO,1693013655
145,ouesso,1.6136,16.0517,20.5,97,100,0.93,CG,1693013656
146,katima mulilo,-17.5,24.2667,18.59,26,0,3.04,NA,1693013658
147,hasaki,35.7333,140.8333,34.06,70,0,3.93,JP,1693013659
148,brookings,44.3114,-96.7984,23.99,59,0,4.12,US,1693013660
149,kapa'a,22.0752,-159.319,31.18,71,0,6.69,US,1693013661
150,camden,39.7835,-74.9663,26.03,86,2,2.65,US,1693013662
151,tando adam,25.7637,68.661,27.39,70,100,9.21,PK,1693013663
152,sitka,57.0531,-135.33,17.94,68,75,2.57,US,1693013665
153,lata,40.1629,-8.3327,17.73,93,100,0.9,PT,1693013666
154,udachny,66.4167,112.4,21.92,40,9,5.59,RU,1693013667
155,sarnen,46.8985,8.2507,20.87,80,40,1.54,CH,1693013669
156,port lincoln,-34.7333,135.8667,13.58,73,100,4.25,AU,1693013423
157,sabang,5.8933,95.3214,27.77,75,83,5.98,ID,1693013672
158,dickinson,29.4608,-95.0513,33.4,73,0,3.09,US,1693013673
159,novodvinsk,64.4165,40.8122,8.16,82,100,2.29,RU,1693013674
160,vilyuchinsk,52.9306,158.4028,16.15,82,99,3.06,RU,1693013675
161,port elizabeth,-33.918,25.5701,10.16,66,20,13.89,ZA,1693013476
162,kingman,35.1894,-114.053,36.77,29,0,2.06,US,1693013677
163,coaldale,49.7167,-112.6185,23.73,49,100,4.12,CA,1693013678
164,antonio enes,-16.2325,39.9086,21.58,89,0,2.92,MZ,1693013679
165,isafjordur,66.0755,-23.124,13.29,90,100,7.13,IS,1693013681
166,klyuchi,52.2667,79.1667,14.63,51,79,1.15,RU,1693013682
167,acarau,-2.8856,-40.12,25.48,81,1,6.55,BR,1693013683
168,tshabong,-26.05,22.45,5.16,68,100,4.5,BW,1693013684
169,mount isa,-20.7333,139.5,26.87,26,0,5.14,AU,1693013685
170,bargaal,11.2864,51.0773,28.02,65,94,8.12,SO,1693013686
171,huarmey,-10.0681,-78.1522,19.58,85,70,4.41,PE,1693013688
172,egilsstadir,65.2653,-14.3948,10.95,71,0,2.06,IS,1693013689
173,san antonio de pale,-1.4014,5.6325,23.4,90,76,3.79,GQ,1693013690
174,uturoa,-16.7333,-151.4333,25.99,81,21,8.21,PF,1693013691
175,ancud,-41.8697,-73.8203,4.91,83,12,3.33,CL,1693013692
176,turkmenbasy,40.0222,52.9552,22.43,73,75,4.12,TM,1693013695
177,ellettsville,39.2339,-86.625,29.28,80,0,0.0,US,1693013697
178,san patricio,28.017,-97.5169,30.97,70,0,4.99,US,1693013698
179,champerico,14.3,-91.9167,27.86,78,100,2.32,GT,1693013699
180,montes claros,-16.735,-43.8617,25.88,50,0,1.54,BR,1693013700
181,pazarcik,37.4869,37.2996,24.11,48,0,2.62,TR,1693013701
182,nikolayevsk-on-amure,53.1406,140.73,16.96,48,100,2.06,RU,1693013653
183,orapa,-21.2833,25.3667,19.44,20,49,2.17,BW,1693013704
184,kingston,17.997,-76.7936,28.53,94,20,4.63,JM,1693013705
185,guerrero negro,27.9769,-114.0611,21.14,81,26,7.72,MX,1693013706
186,tralee,52.2704,-9.7026,12.43,92,22,4.03,IE,1693013707
187,koungou,-12.7336,45.2042,24.84,83,0,3.09,YT,1693013708
188,ode,7.7899,5.7117,21.78,98,100,2.23,NG,1693013709
189,karelichy,53.5653,26.1378,16.23,71,100,3.05,BY,1693013711
190,kavarna,43.4333,28.3333,22.54,98,0,2.23,BG,1693013712
191,broken hill,-31.95,141.4333,21.71,22,1,3.53,AU,1693013494
192,santa rosa,14.3122,121.1114,30.62,83,100,7.03,PH,1693013333
193,saipan,15.1355,145.701,27.58,100,75,1.54,MP,1693013680
194,khajuraho group of monuments,24.85,79.9333,25.35,78,100,3.79,IN,1693013716
195,cannonvale,-20.2833,148.7,22.66,62,0,8.06,AU,1693013718
196,al mutayrifi,25.4788,49.5576,35.19,14,96,4.86,SA,1693013719
197,illizi,26.4833,8.4667,30.89,26,13,2.08,DZ,1693013720
198,nuuk,64.1835,-51.7216,7.92,88,100,12.04,GL,1693013721
199,fang,19.9169,99.2145,23.35,99,100,0.95,TH,1693013468
200,hadibu,12.65,54.0333,26.32,84,72,7.88,YE,1693013723
201,penzance,50.1186,-5.5371,14.38,82,53,8.16,GB,1693013725
202,nyrob,60.733,56.7202,5.95,99,100,1.59,RU,1693013726
203,rovaniemi,66.5,25.7167,12.67,82,0,0.51,FI,1693013727
204,namtsy,62.7161,129.6658,12.49,69,100,2.98,RU,1693013728
205,sawakin,19.1059,37.3321,30.45,78,60,1.64,SD,1693013729
206,jamestown,42.097,-79.2353,20.77,97,100,1.54,US,1693013731
207,rawson,-43.3002,-65.1023,7.44,49,29,4.49,AR,1693013732
208,lompoc,34.6391,-120.4579,27.1,81,0,8.05,US,1693013733
209,mossel bay,-34.1831,22.146,9.96,69,100,13.62,ZA,1693013734
210,mahina,-17.5065,-149.489,28.87,65,40,3.09,PF,1693013735
211,zaozersk,69.4005,32.4476,8.51,81,100,2.58,RU,1693013736
212,wanning,18.8003,110.3967,31.94,61,94,4.14,CN,1693013738
213,ovalle,-30.5983,-71.2003,14.34,62,58,1.31,CL,1693013739
214,yeniseysk,58.4497,92.1703,17.18,92,100,2.78,RU,1693013741
215,colonia,50.9333,6.95,18.87,80,75,5.14,DE,1693013742
216,zhezqazghan,47.7833,67.7667,10.32,57,0,4.0,KZ,1693013743
217,merizo village,13.2658,144.6691,31.85,83,100,10.24,GU,1693013744
218,moose jaw,50.4001,-105.5344,20.14,45,0,1.54,CA,1693013745
219,dzuunharaa,48.8523,106.4579,12.81,94,100,1.54,MN,1693013746
220,pueblo nuevo,23.3833,-105.3833,16.87,93,64,1.21,MX,1693013748
221,katsuura,35.1333,140.3,29.25,70,5,4.51,JP,1693013494
222,keelung,25.1283,121.7419,32.83,75,11,5.45,TW,1693013504
223,inhambane,-23.865,35.3833,22.23,70,63,6.14,MZ,1693013751
224,howrah,22.5892,88.3103,27.0,94,100,2.57,IN,1693013694
225,palembang,-2.9167,104.7458,27.05,89,20,1.03,ID,1693013694
226,port alfred,-33.5906,26.891,8.99,80,53,2.68,ZA,1693013756
227,par,50.3539,-4.7109,14.39,90,81,4.05,GB,1693013758
228,tremonton,41.7119,-112.1655,31.54,39,0,1.79,US,1693013759
229,dudinka,69.4058,86.1778,11.46,97,100,6.17,RU,1693013761
230,bambari,5.768,20.6757,21.28,96,99,0.66,CF,1693013762
231,sakaiminato,35.55,133.2333,31.99,62,75,2.06,JP,1693013764
232,port mathurin,-19.6833,63.4167,22.57,72,57,11.37,MU,1693013767
233,el nido,11.1858,119.3956,28.41,79,100,5.23,PH,1693013768
234,point pedro,9.8167,80.2333,28.38,74,94,8.52,LK,1693013771
235,krasnovishersk,60.4078,57.082,6.04,99,100,1.22,RU,1693013772
236,remire-montjoly,4.9167,-52.2667,26.02,89,0,1.03,GF,1693013777
237,dhidhdhoo,6.8833,73.1,27.91,72,85,2.19,MV,1693013779
238,sanming,26.2486,117.6186,29.49,82,99,0.55,CN,1693013780
239,nagqu,31.5,92.0,5.24,87,100,1.36,CN,1693013781
240,carboneras,37.0015,-1.9213,26.29,51,20,0.36,ES,1693013782
241,freetown,8.484,-13.2299,26.84,89,40,4.12,SL,1693013783
242,behompy,-23.2496,43.8557,20.59,59,0,2.73,MG,1693013785
243,mahibadhoo,3.7833,72.9667,28.21,73,35,3.29,MV,1693013786
244,mytilene,39.11,26.5547,22.9,60,39,4.37,GR,1693013788
245,longyearbyen,78.2186,15.6401,5.91,87,40,1.03,SJ,1693013789
246,floro,61.5996,5.0328,14.04,88,20,2.57,NO,1693013791
247,fortaleza,-3.7227,-38.5247,27.07,78,75,5.66,BR,1693013793
248,gamba,-2.65,10.0,21.99,95,72,1.38,GA,1693013794
249,badger,64.8,-147.5333,19.14,68,75,4.63,US,1693013795
250,qa'en,33.7265,59.1844,18.79,32,0,1.71,IR,1693013796
251,keflavik,64.0049,-22.5624,12.95,100,100,9.26,IS,1693013797
252,vernon,50.2581,-119.2691,24.74,43,100,0.51,CA,1693013798
253,samthar,25.85,78.9167,26.3,72,97,4.51,IN,1693013751
254,prince rupert,54.3161,-130.3201,17.83,84,0,8.23,CA,1693013801
255,kirkuk,35.4681,44.3922,29.16,19,0,1.6,IQ,1693013802
256,anna regina,7.2644,-58.5077,27.49,79,17,3.13,GY,1693013803
257,minas de marcona,-15.2119,-75.1103,12.45,85,45,6.17,PE,1693013804
258,pacasmayo,-7.4006,-79.5714,19.4,87,25,5.39,PE,1693013805
259,kitui,-1.367,38.0106,16.11,89,85,2.96,KE,1693013807
260,codrington,-38.2667,141.9667,12.9,63,42,3.54,AU,1693013808
261,selfoss,63.9331,-20.9971,12.8,96,100,4.04,IS,1693013809
262,machagai,-26.9261,-60.0496,13.59,42,1,3.01,AR,1693013810
263,college,64.8569,-147.8028,19.18,70,75,4.63,US,1693013812
264,kiunga,-6.1219,141.2906,24.65,82,100,2.32,PG,1693013813
265,khandyga,62.6667,135.6,15.8,56,99,1.06,RU,1693013814
266,dawesville,30.9224,-84.0091,30.65,70,40,2.57,US,1693013816
267,tazovsky,67.4667,78.7,9.95,73,100,2.87,RU,1693013817
268,ust-nera,64.5667,143.2,13.77,51,34,2.33,RU,1693013819
269,san carlos,9.6612,-68.5827,24.54,93,100,0.8,VE,1693013821
270,yen vinh,18.6667,105.6667,31.01,63,99,2.29,VN,1693013739
271,touros,-5.1989,-35.4608,23.35,85,0,4.27,BR,1693013824
272,cabedelo,-6.9811,-34.8339,23.37,80,80,2.04,BR,1693013825
273,gaiman,-43.2897,-65.4929,7.16,50,13,4.85,AR,1693013826
274,tionk essil,12.7856,-16.5217,25.03,92,100,2.26,SN,1693013827
275,porto novo,6.4965,2.6036,24.22,93,47,3.2,BJ,1693013828
276,winnemucca,40.973,-117.7357,32.03,22,40,6.17,US,1693013829
277,maceio,-9.6658,-35.7353,21.69,100,0,1.54,BR,1693013831
278,ust-tsilma,65.441,52.1498,6.7,82,100,3.56,RU,1693013832
279,forster,-32.1667,152.5167,19.65,64,33,3.09,AU,1693013833
280,happy valley-goose bay,53.3168,-60.3315,18.17,59,75,4.63,CA,1693013834
281,rozhyshche,50.9154,25.2691,20.2,89,57,3.01,UA,1693013836
282,nuku'alofa,-21.1333,-175.2,24.19,73,20,5.14,TO,1693013837
283,tofol,5.3248,163.0078,30.88,70,75,3.6,FM,1693013838
284,chapaev,50.2,51.1667,12.53,51,35,4.04,KZ,1693013840
285,canutama,-6.5339,-64.3831,27.4,50,5,0.78,BR,1693013841
286,boerne,29.7947,-98.732,35.53,40,0,0.45,US,1693013842
287,livingston,55.9029,-3.5226,11.18,93,0,0.51,GB,1693013844
288,santana,-0.0583,-51.1817,29.1,74,40,4.12,BR,1693013845
289,maputo,-25.9653,32.5892,24.54,40,100,5.87,MZ,1693013846
290,lodja,-3.4833,23.4333,20.73,91,100,0.53,CD,1693013847
291,panacan,9.2463,118.4082,29.32,69,100,2.18,PH,1693013848
292,gadzhiyevo,69.2551,33.3362,8.69,81,100,4.32,RU,1693013849
293,puerto ayora,-0.7393,-90.3518,24.19,95,3,2.68,EC,1693013850
294,oranjemund,-28.55,16.4333,11.35,89,12,5.67,NA,1693013851
295,puerto colombia,10.9878,-74.9547,29.05,79,73,5.53,CO,1693013853
296,coroata,-4.13,-44.1242,25.03,80,4,2.87,BR,1693013854
297,revda,56.801,59.9303,6.79,94,100,3.25,RU,1693013856
298,demyansk,57.643,32.466,12.79,97,100,2.03,RU,1693013858
299,argostolion,38.1811,20.489,25.41,72,9,1.59,GR,1693013859
300,cobija,-11.0267,-68.7692,29.35,41,82,1.35,BO,1693013860
301,alpena,45.0617,-83.4327,19.18,94,20,1.54,US,1693013862
302,atafu village,-8.5421,-172.5159,28.1,78,100,5.08,TK,1693013863
303,krasnyy yar,46.5331,48.3456,19.98,58,44,3.64,RU,1693013864
304,tartu,58.3806,26.7251,16.14,83,75,1.03,EE,1693013865
305,guadalupe y calvo,26.1,-106.9667,15.96,86,100,0.17,MX,1693013867
306,tshela,-4.9833,12.9333,21.12,93,96,0.62,CD,1693013868
307,new ulm,44.3125,-94.4605,26.21,56,0,5.14,US,1693013869
308,sao gabriel da cachoeira,-0.1303,-67.0892,25.03,75,2,0.73,BR,1693013870
309,mananara,-16.1667,49.7667,20.35,94,68,1.24,MG,1693013871
310,tual,-5.6667,132.75,25.19,86,7,9.26,ID,1693013873
311,tazacorte,28.629,-17.9293,27.3,62,0,3.09,ES,1693013874
312,ihosy,-22.4,46.1167,16.26,87,68,3.66,MG,1693013700
313,karratha,-20.7377,116.8463,26.95,16,0,9.28,AU,1693013876
314,nanao,37.05,136.9667,36.29,59,1,2.57,JP,1693013616
315,kikwit,-5.041,18.8162,23.87,77,85,0.79,CD,1693013878
316,miechow,50.3565,20.0279,22.86,75,96,2.4,PL,1693013879
317,guajara,-2.9667,-57.6667,27.38,46,25,0.77,BR,1693013881
318,finale ligure,44.1695,8.3436,27.17,84,50,1.34,IT,1693013882
319,imbituba,-28.24,-48.6703,11.56,78,24,3.76,BR,1693013883
320,vila do maio,15.1333,-23.2167,27.44,76,100,1.28,CV,1693013884
321,celestun,20.8667,-90.4,27.36,79,79,4.43,MX,1693013885
322,nuriootpa,-34.4833,139.0,17.99,40,18,3.24,AU,1693013887
323,akureyri,65.6835,-18.0878,17.96,42,0,4.12,IS,1693013888
324,hamilton,39.1834,-84.5333,27.62,80,0,5.14,US,1693013889
325,gizo,-8.103,156.8419,25.32,90,100,7.1,SB,1693013890
326,naze,28.3667,129.4833,27.51,75,43,4.27,JP,1693013648
327,alice springs,-23.7,133.8833,21.75,15,0,6.17,AU,1693013892
328,fale old settlement,-9.3852,-171.2468,28.01,79,55,5.89,TK,1693013894
329,lihue,21.9789,-159.3672,30.77,63,0,6.69,US,1693013895
330,gallup,35.5281,-108.7426,27.91,30,0,3.09,US,1693013705
331,vadso,70.0744,29.7487,9.49,87,100,2.57,NO,1693013897
332,beira,-19.8436,34.8389,18.05,100,0,3.09,MZ,1693013697
333,maracacume,-2.0428,-45.9592,22.71,93,4,1.5,BR,1693013900
334,island harbour,50.724,-1.2758,14.99,93,85,0.45,GB,1693013901
335,mount gambier,-37.8333,140.7667,13.16,58,61,2.86,AU,1693013902
336,garh maharaja,30.8339,71.9053,31.72,44,4,3.43,PK,1693013903
337,portland,45.5234,-122.6762,33.99,31,20,3.6,US,1693013904
338,cold lake,54.4502,-110.2017,19.97,68,0,2.57,CA,1693013907
339,maintirano,-18.0667,44.0167,23.64,77,81,1.82,MG,1693013908
340,buka,40.8108,69.1986,23.03,33,0,1.41,UZ,1693013909
341,scottburgh,-30.2867,30.7532,16.78,81,3,3.63,ZA,1693013911
342,concepcion,-36.827,-73.0498,7.89,81,7,2.06,CL,1693013912
343,tommot,58.9564,126.2925,16.94,51,0,1.26,RU,1693013914
344,inarajan village,13.2736,144.7484,32.08,83,100,9.93,GU,1693013915
345,buenavista,8.9769,125.4089,30.42,67,98,1.63,PH,1693013916
346,walvis bay,-22.9575,14.5053,10.61,93,50,2.57,NA,1693013919
347,kourou,5.1552,-52.6478,26.03,84,4,3.75,GF,1693013920
348,bangjun,39.9911,117.2628,22.57,81,100,1.96,CN,1693013922
349,thinadhoo,0.5333,72.9333,28.08,74,45,2.78,MV,1693013923
350,fort-shevchenko,44.5086,50.263,24.79,57,9,6.2,KZ,1693013925
351,posto fiscal rolim de moura,-13.0833,-62.2667,27.81,53,84,0.49,BR,1693013926
352,onega,63.9061,38.1404,8.55,83,92,1.98,RU,1693013927
353,sabrum,23.0,91.7319,24.72,99,100,1.8,IN,1693013928
354,mount pearl,47.5166,-52.7813,13.18,93,40,3.6,CA,1693013929
355,umm kaddadah,13.6017,26.6876,31.12,46,92,4.41,SD,1693013931
356,santo domingo de la calzada,42.4285,-2.9555,15.81,85,87,0.54,ES,1693013932
357,kismayo,-0.3582,42.5454,24.77,84,25,6.68,SO,1693013933
358,mana,5.6592,-53.7767,26.12,87,18,4.26,GF,1693013934
359,punta arenas,-53.15,-70.9167,2.4,86,97,3.79,CL,1693013935
360,tolanaro,-25.0319,46.9987,22.04,73,20,7.2,MG,1693013936
361,new plymouth,-39.0667,174.0833,10.73,74,10,2.54,NZ,1693013846
362,holbrook,40.8123,-73.0784,23.02,93,100,4.12,US,1693013939
363,nabire,-3.3667,135.4833,29.61,66,100,1.65,ID,1693013539
364,virginia beach,36.8529,-75.978,29.45,80,75,3.6,US,1693013941
365,nova vicosa,-17.8919,-39.3719,24.84,85,93,8.89,BR,1693013943
366,wawa,9.9022,4.4192,23.48,91,99,2.11,NG,1693013944
367,lipsko,51.3396,12.3713,22.48,89,0,4.12,DE,1693013945
368,luwuk,-0.9516,122.7875,27.18,77,64,3.85,ID,1693013946
369,akjoujt,19.6969,-14.4164,33.63,37,95,5.83,MR,1693013948
370,jindrichuv hradec,49.144,15.003,21.99,88,61,0.71,CZ,1693013949
371,tsiombe,-25.3,45.4833,20.12,67,0,3.2,MG,1693013950
372,hujra shah muqim,30.7418,73.8236,28.95,60,5,3.27,PK,1693013951
373,sitia,35.2,26.0986,26.1,72,0,5.06,GR,1693013952
374,lorengau,-2.0226,147.2712,27.77,83,11,4.75,PG,1693013953
375,manta,-0.95,-80.7333,25.88,78,75,7.6,EC,1693013955
376,tabora,-5.0167,32.8,20.19,55,5,2.8,TZ,1693013956
377,irituia,-1.7711,-47.4381,23.76,85,6,2.07,BR,1693013957
378,flin flon,54.7682,-101.865,14.7,64,0,2.06,CA,1693013959
379,beboto,8.2668,16.939,22.06,97,100,1.39,TD,1693013960
380,angaur state,6.906,134.13,28.27,80,6,6.92,PW,1693013961
381,urmary,55.6789,47.944,10.54,65,100,2.51,RU,1693013962
382,phang nga,8.4509,98.5298,27.02,68,1,1.89,TH,1693013943
383,nguigmi,14.2495,13.1092,29.01,58,13,3.77,NE,1693013965
384,antsiranana,-12.2787,49.2917,22.39,78,8,7.03,MG,1693013966
385,fada,9.5667,8.3,19.68,98,100,1.04,NG,1693013967
386,nelson,-41.2833,173.2833,13.49,71,9,2.62,NZ,1693013790
387,boca do acre,-8.7522,-67.3978,25.71,64,2,1.07,BR,1693013969
388,ghat,24.9647,10.1728,31.28,20,26,1.05,LY,1693013970
389,mbandaka,0.0487,18.2603,20.34,90,100,0.89,CD,1693013971
390,aqaba,29.5267,35.0078,27.92,57,0,4.12,JO,1693013974
391,borovskoy,53.8,64.15,11.09,76,100,3.14,KZ,1693013975
392,chui,-33.6971,-53.4616,5.94,79,0,3.27,UY,1693013976
393,loikaw,19.6742,97.2094,22.84,86,99,1.9,MM,1693013977
394,nadym,65.5333,72.5167,8.51,87,100,4.35,RU,1693013978
395,crane,31.3974,-102.3501,31.23,32,2,4.56,US,1693013980
396,tomatlan,19.9333,-105.25,26.4,87,95,1.44,MX,1693013981
397,kavieng,-2.5744,150.7967,28.13,74,16,3.24,PG,1693013982
398,quatre cocos,-20.2078,57.7625,22.83,73,5,6.5,MU,1693013983
399,abepura,-2.6333,140.5833,25.45,89,40,0.0,ID,1693013984
400,fortuna,40.5982,-124.1573,18.29,86,100,5.14,US,1693013985
401,bodo,67.28,14.405,14.87,80,0,7.72,NO,1693013987
402,suhbaatar,50.2314,106.2078,18.51,63,97,4.81,MN,1693013988
403,al mijlad,11.0333,27.7333,24.99,81,58,4.43,SD,1693013989
404,oranjestad,12.524,-70.027,29.39,89,20,3.09,AW,1693013990
405,bel ombre,-4.6167,55.4167,26.91,78,20,4.12,SC,1693013992
406,selibaby,15.159,-12.1829,29.35,64,8,6.04,MR,1693013993
407,berriane,32.8265,3.7669,30.45,25,0,3.41,DZ,1693013994
408,kerikeri,-35.2268,173.9474,16.62,65,37,0.89,NZ,1693013995
409,mil'kovo,55.6078,37.7956,10.75,77,100,0.98,RU,1693013996
410,vila velha,-20.3297,-40.2925,22.19,97,20,1.54,BR,1693013997
411,cabezon de la sal,43.3089,-4.2302,18.17,90,100,1.17,ES,1693013998
412,altay,47.8667,88.1167,25.81,26,0,0.88,CN,1693013865
413,karlovo,42.6333,24.8,23.67,64,0,0.32,BG,1693014001
414,mukalla,14.5425,49.1242,29.42,73,15,1.65,YE,1693014003
415,ola,59.5833,151.2833,12.86,88,100,3.38,RU,1693014004
416,belmonte,-15.8631,-38.8828,24.75,83,52,7.09,BR,1693014006
417,aspen,39.1911,-106.8175,17.14,82,100,1.54,US,1693014007
418,awjilah,29.1081,21.2869,29.4,36,27,5.58,LY,1693014008
419,tchintabaraden,15.8969,5.7985,29.82,51,43,5.06,NE,1693014009
420,gowurdak,37.8124,66.0466,25.46,29,0,4.88,TM,1693014010
421,leua,48.2156,18.6071,24.16,82,99,2.46,SK,1693014012
422,lepsy,46.235,78.9456,24.02,45,66,1.78,KZ,1693014014
423,arraial do cabo,-22.9661,-42.0278,21.16,93,99,3.48,BR,1693014015
424,njombe,-9.3333,34.7667,11.98,98,84,1.79,TZ,1693014016
425,hammerfest,70.6634,23.6821,6.25,100,20,1.54,NO,1693013990
426,winkler,49.1817,-97.941,17.0,77,84,4.12,CA,1693014019
427,anahuac,27.2333,-100.15,32.54,49,25,7.42,MX,1693014020
428,usakos,-22.0,15.6,10.96,44,18,0.58,NA,1693014021
429,luanda,-8.8368,13.2343,21.0,88,40,2.06,AO,1693013750
430,valparaiso,-33.0393,-71.6273,12.8,66,0,2.57,CL,1693014023
431,mariental,-24.6333,17.9667,7.16,61,100,4.53,NA,1693014026
432,glushkovo,51.3392,34.6328,13.38,88,70,1.65,RU,1693014027
433,isangel,-19.55,169.2667,22.47,57,57,7.31,VU,1693014028
434,bayganin,48.6947,55.8742,13.97,83,100,3.42,KZ,1693014029
435,qarauyl,48.9451,79.255,15.17,66,2,3.64,KZ,1693014030
436,ad darb,17.7229,42.2526,31.89,65,12,1.81,SA,1693014032
437,port macquarie,-31.4333,152.9167,18.83,63,64,2.67,AU,1693013784
438,lethem,3.3803,-59.7968,27.77,57,19,0.75,GY,1693014034
439,carbondale,37.7273,-89.2168,30.16,94,0,1.54,US,1693014035
440,mahbubabad,17.6167,80.0167,26.1,85,92,2.71,IN,1693014037
441,middelburg,-25.7751,29.4648,12.89,38,4,3.14,ZA,1693014038
442,hithadhoo,-0.6,73.0833,28.12,76,29,4.14,MV,1693014040
443,san luis de la loma,17.2706,-100.8939,26.39,84,98,0.44,MX,1693014041
444,rio grande,-32.035,-52.0986,6.64,70,56,1.19,BR,1693014042
445,susanville,40.4163,-120.653,27.91,28,0,4.12,US,1693014044
446,sangmelima,2.9333,11.9833,19.9,99,100,0.92,CM,1693014046
447,morant bay,17.8815,-76.4093,28.79,83,69,1.68,JM,1693014047
448,hirara,24.8,125.2833,31.15,74,40,2.57,JP,1693014049
449,nemuro,43.3236,145.575,21.8,93,63,8.08,JP,1693013961
450,el calafate,-50.3408,-72.2768,-2.27,82,9,1.11,AR,1693014051
451,roma,43.2128,-75.4557,21.64,93,100,3.09,US,1693014053
452,korla,41.7597,86.1469,27.78,20,0,2.02,CN,1693014055
453,brandfort,-28.7001,26.4597,6.67,69,0,1.97,ZA,1693014056
454,sao jose da coroa grande,-8.8978,-35.1478,23.66,76,94,3.63,BR,1693014058
455,north lakhimpur,27.2333,94.1167,25.05,100,100,2.06,IN,1693013985
456,youhao,47.8667,128.8333,16.96,88,100,1.24,CN,1693014060
457,bridgewater,44.3835,-64.5155,18.82,95,97,3.6,CA,1693014061
458,dundalk,39.2507,-76.5205,27.99,83,40,1.34,US,1693014062
459,el granada,37.5027,-122.4694,24.97,78,100,9.77,US,1693014064
460,vallenar,-28.5708,-70.7581,16.79,34,90,0.66,CL,1693014065
461,babu,24.4167,111.5167,29.49,79,93,1.74,CN,1693013926
462,susuman,62.7833,148.1667,9.58,80,100,2.57,RU,1693014068
463,salinas,36.6777,-121.6555,23.88,78,20,4.63,US,1693014069
464,genhe,50.7833,121.5167,18.27,34,100,2.92,CN,1693013979
465,sinop,41.7711,34.8709,17.29,57,0,2.2,TR,1693014072
466,bettiah,26.8,84.5,26.4,88,60,1.38,IN,1693013806
467,sona,45.4388,10.8255,25.88,81,0,1.54,IT,1693014074
468,yakeshi,49.2833,120.7333,15.31,58,100,1.49,CN,1693014075
469,holly springs,35.6513,-78.8336,28.38,82,64,1.48,US,1693014077
470,mohr,54.3528,9.7167,18.95,98,87,1.54,DE,1693014079
471,isla mujeres,21.2311,-86.731,25.09,83,100,6.57,MX,1693014080
472,bhattarai danda,27.8828,83.9314,25.17,88,20,0.21,NP,1693014081
473,tharad,24.3961,71.6267,27.8,63,100,6.12,IN,1693013948
474,oppdal,62.5943,9.6912,11.47,89,100,1.86,NO,1693014083
475,kizner,56.2749,51.508,5.74,96,38,2.02,RU,1693014085
476,fauske,67.2588,15.3918,14.87,79,0,3.53,NO,1693014086
477,fort st. john,56.2499,-120.8529,25.94,25,0,3.6,CA,1693013979
478,podenzano,44.9564,9.685,24.11,61,0,2.05,IT,1693014088
479,zheshart,62.0731,49.5733,7.45,97,100,2.36,RU,1693014090
480,aykhal,66.0,111.5,20.62,50,9,5.7,RU,1693014091
481,alofi,-19.0595,-169.9187,27.94,78,6,3.6,NU,1693014088
482,guntakal junction,15.1667,77.3833,25.53,73,100,4.61,IN,1693014094
483,bambanglipuro,-7.95,110.2833,26.96,64,4,4.52,ID,1693014095
484,west bay,19.3667,-81.4167,29.04,88,20,0.0,KY,1693014097
485,paramonga,-10.6667,-77.8333,19.1,86,33,4.31,PE,1693014098
486,pyay,18.8167,95.2167,27.09,83,100,3.09,MM,1693014099
487,puerto santa,-8.9906,-78.6456,19.34,86,62,4.35,PE,1693014100
488,miles city,46.4083,-105.8406,25.54,33,0,3.09,US,1693014101
489,talara,-4.5772,-81.2719,22.42,83,0,6.3,PE,1693014103
490,dolores,-36.3132,-57.6792,4.39,67,1,2.87,AR,1693014105
491,vaasa,63.096,21.6158,14.47,97,100,2.68,FI,1693014077
492,kyren,51.6828,102.1408,19.69,59,9,0.16,RU,1693014108
493,awsim,30.123,31.1357,27.44,77,0,3.13,EG,1693014109
494,yankton,42.8711,-97.3973,26.14,57,0,4.63,US,1693014110
495,al jawf,29.5,38.75,25.39,50,0,4.44,SA,1693014111
496,picui,-6.5106,-36.3469,19.59,89,9,6.74,BR,1693014112
497,la cruz,23.9167,-106.9,29.1,82,91,2.17,MX,1693014113
498,coahuayana de hidalgo,18.7,-103.6583,26.02,85,83,0.83,MX,1693014115
499,acapulco de juarez,16.8634,-99.8901,27.11,81,60,2.4,MX,1693014116
500,feodosiya,45.0333,35.3833,22.1,64,2,4.03,UA,1693014117
501,sechura,-5.5569,-80.8222,20.58,77,2,6.5,PE,1693014118
502,dauphin,51.1494,-100.0502,15.08,88,0,2.57,CA,1693014119
503,iwanai,42.9744,140.5089,30.14,69,95,4.46,JP,1693013959
504,isna,25.2934,32.554,30.01,21,0,11.12,EG,1693014122
505,conceicao do coite,-11.5639,-39.2828,19.33,88,12,3.62,BR,1693013982
506,christchurch,-43.5333,172.6333,15.23,71,6,5.66,NZ,1693013980
507,holualoa,19.6228,-155.9522,25.91,76,75,3.09,US,1693014126
508,angra do heroismo,38.65,-27.2167,23.34,87,40,0.89,PT,1693014127
509,bikenibeu village,1.3673,173.1241,31.98,66,75,2.57,KI,1693014129
510,nanlong,31.3533,106.0631,20.82,98,100,3.15,CN,1693014130
511,oyama,36.3,139.8,33.1,46,3,1.68,JP,1693014131
512,palikir - national government center,6.9248,158.1611,27.6,77,32,3.96,FM,1693014132
513,manali,13.1667,80.2667,28.05,87,100,6.67,IN,1693014135
514,whitby,54.4877,-0.615,11.32,89,21,1.34,GB,1693014136
515,severodvinsk,64.5635,39.8302,9.62,81,100,4.71,RU,1693014135
516,bibbiena,43.6965,11.8135,17.16,68,0,0.72,IT,1693014138
517,birjand,32.8663,59.2211,16.26,29,0,3.09,IR,1693014139
518,rajgarh,28.6333,75.3833,28.71,58,10,6.39,IN,1693014140
519,suva,-18.1416,178.4415,24.71,73,75,3.09,FJ,1693014141
520,itoman,26.1247,127.6694,31.43,79,75,1.03,JP,1693014143
521,cambria,35.5641,-121.0808,25.69,84,17,2.68,US,1693014144
522,thoen,17.6129,99.2161,26.77,81,91,1.61,TH,1693014145
523,bure,10.7,37.0667,12.81,93,100,1.47,ET,1693014146
524,abra pampa,-22.7205,-65.697,8.27,7,12,3.38,AR,1693014148
525,abashiri,44.0213,144.2697,33.16,62,20,7.72,JP,1693013928
526,smara,26.7384,-11.6719,27.93,48,88,4.82,EH,1693014151
527,barah,13.7,30.3667,27.36,62,100,13.01,SD,1693014152
528,lerwick,60.1545,-1.1494,13.0,95,100,5.98,GB,1693014153
529,borcka,41.3632,41.6765,20.2,84,10,2.32,TR,1693014154
530,shakawe,-18.3667,21.85,18.68,23,0,0.78,BW,1693014155
531,siwa oasis,29.2041,25.5195,30.26,34,0,4.17,EG,1693014157
532,san-pedro,4.7485,-6.6363,23.87,94,85,2.45,CI,1693014158
533,chaman,30.9236,66.4512,24.58,19,1,2.23,PK,1693014159
534,tashtyp,52.7939,89.8983,18.07,87,100,1.86,RU,1693014160
535,callao,-12.0667,-77.15,20.95,73,100,4.63,PE,1693014161
536,krasnyy chikoy,50.3643,108.7512,16.41,68,90,0.77,RU,1693014163
537,conception bay south,47.4999,-52.9981,13.29,93,7,2.35,CA,1693014164
538,kudahuvadhoo,2.6708,72.8944,28.38,72,33,4.11,MV,1693014165
539,bandundu,-3.3167,17.3667,25.21,75,98,1.72,CD,1693014166
540,an nimas,19.1455,42.1201,20.46,31,10,1.29,SA,1693014167
541,chernyshevsk,52.5243,117.0174,20.47,43,7,1.83,RU,1693014169
542,fort mcmurray,56.7268,-111.381,22.77,49,0,3.6,CA,1693014170
543,chinchilla,-26.75,150.6333,22.33,39,0,2.18,AU,1693013990
544,dwarka,22.2394,68.9678,26.74,81,100,7.15,IN,1693013945
545,mudurnu,40.473,31.2076,18.19,61,0,1.35,TR,1693014173
546,tarija,-21.5355,-64.7296,10.95,71,4,3.09,BO,1693014174
547,orvieto,42.7195,12.1116,23.4,65,0,0.72,IT,1693014175
548,meadow lakes,61.6247,-149.6011,17.63,84,0,1.54,US,1693014177
549,filadelfia,39.9523,-75.1638,26.11,87,18,1.98,US,1693014009
550,laguna,38.421,-121.4238,34.19,34,0,4.12,US,1693014180
551,la passe,45.5549,-0.8967,18.32,77,3,2.89,FR,1693014181
552,shipunovo,52.1582,82.2173,14.85,67,4,3.38,RU,1693014182
553,roccella ionica,38.322,16.4009,25.95,66,5,2.38,IT,1693014184
554,kabansk,52.0486,106.6528,21.34,54,98,2.21,RU,1693014185
555,sanctuary point,-35.1114,150.629,17.33,59,0,2.96,AU,1693014186
556,basco,20.4487,121.9702,28.75,77,100,9.92,PH,1693014187
557,puerto esperanza,-26.0152,-54.6731,17.02,63,5,2.7,AR,1693014185
558,cheremukhovo,60.3484,59.9851,7.21,85,100,2.38,RU,1693014190
559,tadine,-21.55,167.8833,21.67,57,14,7.23,NC,1693014191
560,kenai,60.5544,-151.2583,14.05,94,100,3.6,US,1693014192
561,higuera de zaragoza,25.95,-109.2833,30.59,64,38,1.72,MX,1693014193
562,ambalangoda,6.2355,80.0538,27.53,78,100,2.86,LK,1693014194
563,ringkobing,56.0901,8.244,12.79,80,21,2.13,DK,1693014096
564,lae,-6.7221,146.9847,24.37,84,98,1.38,PG,1693014197
565,padre las casas,18.7317,-70.9392,22.43,96,100,0.97,DO,1693014198
566,chabahar,25.2919,60.643,26.57,86,99,4.45,IR,1693014199
567,turka,49.1541,23.0297,16.46,87,4,2.18,UA,1693014200
568,merowe,18.4833,31.8167,35.67,13,95,4.8,SD,1693014201
569,wulingyuan,29.3494,110.5441,22.85,97,100,0.93,CN,1693014203
570,puerto deseado,-47.7503,-65.8938,4.17,76,12,6.21,AR,1693014204
571,constitucion,-35.3333,-72.4167,8.31,82,51,2.86,CL,1693014205
572,south hedland,-20.4089,118.5983,30.96,8,0,9.26,AU,1693014206
573,moree,-29.4667,149.85,22.44,36,99,2.33,AU,1693014003
